stop_id,stop_name,stop_lat,stop_lon,stop_code
"9@AC141_613","Castell'Azzara Centro","42.773310222504","11.6979369829342","9@AC141"
"9@AC144_613","Sforzesca","42.783078551994","11.7444382658981","9@AC144"
"9@AD211_613","Consorzio Agrario","43.1056609297708","11.5675281719433","9@AD211"
"9@AD215_613","Bv. Montechiari","43.1176069207396","11.5714993222137","9@AD215"
"9@AD216_613","Bivio Lucignano","43.1306405807756","11.5751537951498","9@AD216"
"9@AD223_613","Bv.Pieve A Salti","43.1376535113918","11.5788460336837","9@AD223"
"9@AD225_613","Bv.Monterongrifoli","43.1451800628516","11.5831449063544","9@AD225"
"9@AD226_613","Bv.Ferrano","43.1474848599332","11.5836194221304","9@AD226"
"9@AD227_613","Traversa Dei Monti","43.1514452152758","11.5880131743116","9@AD227"
"9@AD228_613","S.Giovanni D'Asso F.S.","43.1534106614115","11.5934927058692","9@AD228"
"9@AD230_613","Scuole","43.1551716940472","11.5885298982587","9@AD230"
"9@AD231_613","Podere Lo Spedale","43.1495356014352","11.5935531834584","9@AD231"
"9@AD232_613","Podere Fornace","43.1546652217334","11.6400165966168","9@AD232"
"9@AD259_613","Podere Fornace","43.1548388375029","11.6399847196517","9@AD259"
"9@AD260_613","Podere Lo Spedale","43.1496074663947","11.5935367937595","9@AD260"
"9@AD261_613","Traversa Dei Monti 6","43.1515181140586","11.5879510726711","9@AD261"
"9@AD262_613","Bv.Ferrano","43.1474441876396","11.5835265856567","9@AD262"
"9@AD263_613","Bv. Monterongriffoli","43.1451258767784","11.5830125237069","9@AD263"
"9@AD264_613","Bv.Pieve A Salti","43.1375621489582","11.5786730093135","9@AD264"
"9@AD266_613","St.S.G.D'Asso Op.Bivio Mulinello","43.1303498999524","11.5748924144698","9@AD266"
"9@AD267_613","Bv. Montechiari","43.1176185023915","11.5714087294465","9@AD267"
"9@AD268_613","Consorzio Agrario","43.1054532654975","11.5673242484519","9@AD268"
"9@AD269_613","Consorzio Agrario","43.1517343523731","11.5890467374508","9@AD269"
"9@AD270_613","Terrecotte Artistiche","43.1502791550109","11.6027669013385","9@AD270"
"9@AD271_613","Montisi-V.Umberto 1 N.10","43.1555908180847","11.6500797562649","9@AD271"
"9@AD272_613","Montisi-Via Umberto 1 N.C. 137","43.1575044105483","11.6535647113535","9@AD272"
"9@AD273_613","Montisi-Via Umberto 1 N.C. 131/B","43.1574212577196","11.6534336360939","9@AD273"
"9@AD274_613","Montisi-Via Umberto 1 N.C.21","43.1554023506835","11.649691697466","9@AD274"
"9@AD275_613","Terrecotte Artistiche","43.1503417850328","11.6027369715532","9@AD275"
"9@AD276_613","Consorzio Agrario","43.1516584381601","11.5891982404905","9@AD276"
"9@AD458_613","San Giovanni D'Asso","43.1534893067177","11.589995653947","9@AD458"
"9@AD789_613","S G.D'Asso Scuole","43.1549516782978","11.5889891870505","9@AD789"
"9@AD842_613","Montisi-Via Umberto 1","43.1594842726629","11.6559366956324","9@AD842"
"9@AD844_613","Montisi-Via Umberto 1 N.C. 45","43.1566140582543","11.6519790342438","9@AD844"
"9@AD845_613","S.Giovanni D'Asso","43.1534176390963","11.5900307523715","9@AD845"
"9@AD846_613","Bv.Montisi","43.1539381005642","11.6471841923445","9@AD846"
"9@AD895_613","Bv.Montisi","43.1539328380005","11.6474114869085","9@AD895"
"9@AD897_613","Montisi-Via Umberto 1 N.C. 42","43.1566409693808","11.6521652069564","9@AD897"
"9@AD899_613","Montisi-Via Umberto 1 N.C. 170","43.1593499172353","11.6559062730509","9@AD899"
"9@AD918_613","S.Giovanni D'Asso Coop","43.1562403783718","11.5891035234711","9@AD918"
"9@AD919_613","Ferrano","43.1490157166035","11.5777763291905","9@AD919"
"9@AR040_613","Carrozieri","42.8536086852727","11.5593841951917","9@AR040"
"9@AR041_613","Carrozieri","42.8534489024613","11.559430341449","9@AR041"
"9@AR042_613","Bv. Termini","42.8553890160881","11.5563292282717","9@AR042"
"9@AR043_613","Bv. Termini","42.8553130995867","11.5564182545408","9@AR043"
"9@AR044_613","Capenti","42.8628389832434","11.5494338602751","9@AR044"
"9@AR045_613","Capenti","42.8625896640277","11.5495502837534","9@AR045"
"9@AR046_613","Arcidosso Scoiattolo","42.8701047374988","11.5424627089742","9@AR046"
"9@AR047_613","Arcidosso Scoiattolo","42.8697499855966","11.5428747680395","9@AR047"
"9@AR048_613","Arcidosso Centrale","42.871171906859","11.540021183199","9@AR048"
"9@AR049_613","Arcidosso Autostazione","42.8680961784216","11.5424786434014","9@AR049"
"9@AR050_613","Arcidosso Cimitero","42.8727218140018","11.5410241015548","9@AR050"
"9@AR051_613","Arcidosso Cimitero","42.8727667687616","11.5408609187089","9@AR051"
"9@AR052_613","Arcidosso Ponti","42.8747057291259","11.5400912142401","9@AR052"
"9@AR053_613","Arcidosso Ponti","42.874631360451","11.5401422888264","9@AR053"
"9@AR054_613","Montoto","42.8776397647428","11.5355068653575","9@AR054"
"9@AR055_613","Montoto","42.8774373549751","11.5353762616044","9@AR055"
"9@AR056_613","Arcidosso S.Lorenzo","42.8820642805906","11.5378607795884","9@AR056"
"9@AR057_613","Arcidosso S.Lorenzo","42.8819402309155","11.5378227548772","9@AR057"
"9@AS048_613","Podere Stiaccione","42.9097167401778","11.6779256426764","9@AS048"
"9@AS049_613","Podere Stiaccione","42.9096373844749","11.6780767956269","9@AS049"
"9@AS149_613","Abbadia S.S. - I.T.I.S.","42.8793944284306","11.6704974606919","9@AS149"
"9@AS150_613","V.Gorizia","42.8786417305892","11.6769156766661","9@AS150"
"9@AS401_613","Abbadia S.S.-Esasseta (Off. Nocci)","42.8917604450368","11.6671086111409","9@AS401"
"9@AS503_613","Abbadia S.S.-Via Hamman Nc.43 I Villini","42.8820298931749","11.6693809061005","9@AS503"
"9@AS504_613","Abbadia S.S.-Via Esasseta Nc.35","42.8884944781639","11.6668054219608","9@AS504"
"9@AS505_613","Abbadia S.S.-Bv Vivo D'Orcia Pod. Rigale","42.900409515461","11.6673667503076","9@AS505"
"9@AS506_613","Abbadia S.S.-Podere Zaccaria","42.9093720952318","11.6727140585978","9@AS506"
"9@AS512_613","Abbadia S.S.-Podere Zaccaria","42.909293243687","11.6725779861556","9@AS512"
"9@AS535_613","Spedaletto","42.9082486900392","11.6681819643475","9@AS535"
"9@AS536_613","Spedaletto","42.9082706395614","11.6679396386317","9@AS536"
"9@AS537_613","Abbadia S.S.-Casa Nocci","42.8929281143965","11.6678359402523","9@AS537"
"9@AS540_613","Abbadia S.S.-Via Hamman Colonia","42.8822874258834","11.6689986088336","9@AS540"
"9@AS542_613","Abbadia S.S. Via Hamman Usl","42.8819922628091","11.6710356762739","9@AS542"
"9@AS543_613","Abbadia S.S.-Ospedale","42.8825189459747","11.6729590935509","9@AS543"
"9@AS544_613","Abbadia S.S. - Largo Verdi","42.8816752063175","11.6735030162263","9@AS544"
"9@AS549_613","Abbadia S.S.-Esasseta","42.8886501564266","11.6669023825811","9@AS549"
"9@AS641_613","Stabilimento Sbrilli","42.8768012300113","11.7306590024877","9@AS641"
"9@AS689_613","Abbadia S.S. Via Remedi","42.876255332933","11.6834107625587","9@AS689"
"9@AS690_613","Abbadia S.Salvatore Remedi","42.8762684620187","11.6832464180452","9@AS690"
"9@AS699_613","Abbadia S.S.-Via 28 Giugno","42.8843243846574","11.668374697074","9@AS699"
"9@AS700_613","Abbadia S.S.-Via 17 Giugno Per Enel","42.8848901231232","11.6691086808288","9@AS700"
"9@AS701_613","Abbadia S.S. - Via Trento Enel","42.8855488751597","11.6700817940944","9@AS701"
"9@AS702_613","V.Gorizia","42.8779220770292","11.6780727657665","9@AS702"
"9@AS706_613","Casa Nocci","42.8930196024998","11.6676774994646","9@AS706"
"9@AS707_613","Alvineta","42.895755974357","11.6684070169712","9@AS707"
"9@AS708_613","Alvineta","42.8957215513103","11.6682884512825","9@AS708"
"9@AS709_613","Bv. Vivo","42.9004691480132","11.6674970677559","9@AS709"
"9@BJ509_613","Podere Casanova","42.8728442273918","11.8665926006881","9@BJ509"
"9@BJ511_613","Celle Sul Rigo-Loc. Palombaio Km. 9,5","42.8642415678786","11.8303770494059","9@BJ511"
"9@BJ512_613","Celle Sul Rigo-Loc. Pianetto","42.862228407134","11.8224589072481","9@BJ512"
"9@BJ513_613","Celle Sul Rigo","42.8632565753531","11.8224060211306","9@BJ513"
"9@BJ514_613","Celle Sul Rigo-Loc. Pianetto","42.8621743856501","11.8225681970579","9@BJ514"
"9@BJ515_613","Celle Sul Rigo-Loc. Palombaio Km. 9,5","42.864378743316","11.8308376910066","9@BJ515"
"9@BJ517_613","Ponte A Rigo - Consorzio","42.8248513196608","11.7750687783798","9@BJ517"
"9@BJ518_613","Ponte A Rigo","42.8249815775471","11.7758238693243","9@BJ518"
"9@BJ520_613","Podere Casa Del Piano","42.8728448164658","11.8666887099393","9@BJ520"
"9@BJ521_613","San Casciano-Bivio Fighine","42.8718771107546","11.8767715806366","9@BJ521"
"9@BJ522_613","S.Casciano Bagni-V.Le Gramsci (Bv Terme)","42.8703716366938","11.8768651226001","9@BJ522"
"9@BJ523_613","S. Casciano Bagni-Viale Roma","42.8677425107232","11.8768348908435","9@BJ523"
"9@BJ524_613","S. Casciano Bagni-Viale Roma, 23 (Banca)","42.8667369949037","11.8756421567098","9@BJ524"
"9@BJ525_613","San Casciano Bagni Capolinea","42.864285474261","11.8772934605309","9@BJ525"
"9@BJ526_613","S. Casciano Bagni-Viale Roma, 13","42.8668989250321","11.875827174274","9@BJ526"
"9@BJ527_613","S.Casciano Bagni-V.Le Roma Ang V.Allende","42.8678563136915","11.877680295261","9@BJ527"
"9@BJ528_613","S.Casciano Bagni-Piazzale Del Ponte","42.8703744369212","11.87719684614","9@BJ528"
"9@BJ529_613","San Casciano-Bivio Fighine","42.8721356664198","11.8768738229565","9@BJ529"
"9@BJ536_613","Palazzone-Loc. Podernuovo","42.8971891631499","11.9369764579281","9@BJ536"
"9@BJ537_613","Palazzone-Loc. Il Sasso Km. 1,6","42.8945348973713","11.9384761110352","9@BJ537"
"9@BJ538_613","Palazzone Al Km 1,8 Sp 82","42.8915736368599","11.9379052095404","9@BJ538"
"9@BJ539_613","Palazzone-Via Piana, 3","42.8911991874008","11.9368832658067","9@BJ539"
"9@BJ540_613","Palazzone-Via Della Sala (Ang. V. Piana)","42.8860642596791","11.9331190787165","9@BJ540"
"9@BJ541_613","Stabbiano-Piazzale Capolinea","42.880105646154","11.9379437543154","9@BJ541"
"9@BJ542_613","Stabbiano (2 Fermata)","42.8813512371517","11.9371258769812","9@BJ542"
"9@BJ543_613","Stabbiano-Ang. Inizio Circonvallazione","42.8820089424689","11.934128307722","9@BJ543"
"9@BJ544_613","Palazzone Al Km 1,8 Sp 82","42.8917056102573","11.9382008495792","9@BJ544"
"9@BJ545_613","Palazzone-Loc. Il Sasso Km. 1,5","42.8945952511984","11.9396316173632","9@BJ545"
"9@BJ546_613","Palazzone-Loc. Podernuovo","42.8974168231872","11.9368770481722","9@BJ546"
"9@BJ617_613","S.Casciano-Dir Celle Sul Rigo Ss 321","42.8662381516256","11.8401019536873","9@BJ617"
"9@BJ618_613","S.Casciano-Dir Chiusi Dd 321","42.8661662575492","11.8402776174898","9@BJ618"
"9@CK005_613","S.P. 34 Umbro Casentin. Di Fronte Nc.251","43.2714247942508","11.9910135168209","9@CK005"
"9@CK007_613","S.P.34 Umbro Casentinese Nc.238","43.2702302586942","11.9848727309585","9@CK007"
"9@CK008_613","S.P.34 Umbro Casentinese","43.2700625534156","11.9880172740998","9@CK008"
"9@CK009_613","S.P.34 Umbro Casentinese - Torrino","43.2690651857586","11.9915525100747","9@CK009"
"9@CK010_613","S.P.34 Umbro Casentinese","43.2690051925433","11.9869613061771","9@CK010"
"9@CK011_613","Via Dei Mori N.C. 21","43.259923921668","11.9831203024269","9@CK011"
"9@CK013_613","Via Dei Mori (Di Fr. Night Club)","43.2578137737862","11.9809463400396","9@CK013"
"9@CK016_613","Camucia Poste","43.2587547986217","11.9740431657537","9@CK016"
"9@CK017_613","Via Ipogeo N.C. 10/C","43.2609437866955","11.973954412399","9@CK017"
"9@CK018_613","Camucia Stazione","43.2616151890913","11.9715422226287","9@CK018"
"9@CK019_613","Camucia Via Regina Elena Nc. 14","43.2615750992744","11.9752146537718","9@CK019"
"9@CK076_613","S.P. 71 U. Casent. Via Gramsci Al Nc. 89","43.2579084621118","11.9802156292186","9@CK076"
"9@CK256_613","S.P.31 Di Manzano","43.2567516151387","11.9705741281829","9@CK256"
"9@CK259_613","Nc. 1022 S.P.31 Di Manzano","43.2545720310069","11.9660435137798","9@CK259"
"9@CK260_613","Nc. 1046 S.P.31 Di Manzano","43.2505367898404","11.9588064563691","9@CK260"
"9@CK261_613","Monsigliolo-Bv.Montecchio Nc. 1087","43.2488689576129","11.9534922349298","9@CK261"
"9@CK265_613","Montecchio Giardini","43.2335297269609","11.9300954654172","9@CK265"
"9@CK266_613","Montecchio S.Comunale","43.230295321347","11.9333328052869","9@CK266"
"9@CK267_613","Montecchio Nc. 14/A S.Comunale","43.2300198241035","11.9391466713268","9@CK267"
"9@CK269_613","Bv. S.Lorenzo Di Fronte Nc88 S.Comunale","43.2217417672912","11.9495957883682","9@CK269"
"9@CK270_613","Nc. 247 S.P. 32 Lauretana","43.2193531539807","11.9484740846912","9@CK270"
"9@CK272_613","Nc. 145 Bis (Appalto) S.P. 32 Lauretana","43.2156285254145","11.945039832","9@CK272"
"9@CK273_613","Nc. 52 S.P.32 Lauretana","43.2066577144409","11.9404305249501","9@CK273"
"9@CK274_613","Sp32 Lauretana Loc. Pianello Vs Centoia","43.2018323596807","11.9399703909024","9@CK274"
"9@CK275_613","Nc. 67 S.P.32 Lauretana","43.193367167931","11.9343263759152","9@CK275"
"9@CK277_613","Nc. 51 S.P.32 Lauretana","43.1889961668656","11.9325555011599","9@CK277"
"9@CK278_613","Centoia Nc. 34 S.P.32 Lauretana","43.1850683468558","11.9308815429719","9@CK278"
"9@CK294_613","Montecchio Di Fronte Nc.19/A(Chiesa)","43.2374854210934","11.9280468859764","9@CK294"
"9@CK353_613","Capezzine (Via Riccio Barullo)","43.180387429679","11.9304218452405","9@CK353"
"9@CK354_613","Capezzine (Via Riccio Barullo)","43.1802847108252","11.9301019389115","9@CK354"
"9@CK359_613","Capezzine (Istituto Agrario)","43.1823102920538","11.9316427567519","9@CK359"
"9@CK378_613","Monsigliolo Nc. 1108","43.2481381955255","11.9495385292154","9@CK378"
"9@CK379_613","Monsigliolo Di Fronte Nc. 50/A","43.2460161260019","11.9427911198561","9@CK379"
"9@CK380_613","Loc. Puntellino Nc. 383","43.2433516193694","11.925051915313","9@CK380"
"9@CK381_613","Manzano Bv.Montecchio","43.2388897384843","11.9182002806785","9@CK381"
"9@CK382_613","Camucia (Scarselli)","43.2601376054303","11.9780648970756","9@CK382"
"9@CK387_613","Via Dei Mori (Dopo Incr. Via Signorelli)","43.2647651508839","11.9833782059631","9@CK387"
"9@CK394_613","Cortona Piazza Mercato","43.273854091453","11.9835199647992","9@CK394"
"9@CT251_613","Cetona-Campagna S.P. 21","42.9737329879835","11.8902001068849","9@CT251"
"9@CT252_613","Cetona-Loc. Pietreto","42.9695491443847","11.8907887761742","9@CT252"
"9@CT253_613","Cetona-Impianti Sportivi","42.9667399877736","11.8966541516686","9@CT253"
"9@CT254_613","Cetona-V.Risorgimento Ang Pzza Garibaldi","42.9653465714751","11.9004738497389","9@CT254"
"9@CT255_613","Cetona-Consorzio Agrario (Ang. V.Piazze)","42.966622456557","11.9021782651638","9@CT255"
"9@CT256_613","Cetona-Officina Renault","42.9670110157649","11.9044296246861","9@CT256"
"9@CT257_613","Cetona-Frantoio","42.9665374849085","11.9088901231268","9@CT257"
"9@CT258_613","Cetona-Loc. Piscinale","42.9673549706921","11.9148002049371","9@CT258"
"9@CT259_613","Cetona-Ang. Strada S.Giuseppe","42.9694103037209","11.9184147547574","9@CT259"
"9@CT260_613","Bv. Palazzo Tosoni","42.9756318291749","11.9267810485067","9@CT260"
"9@CT266_613","Cetona-Loc.Campagna S.S. 321","42.976400096873","11.9385361644226","9@CT266"
"9@CT267_613","Cetona-V.Del Polacco (Fattoria Sgarroni)","42.9779182806957","11.9310278690284","9@CT267"
"9@CT273_613","Cetona-Loc.Campagna Trav. Cassia Aurelia","42.969124340321","11.9179767371678","9@CT273"
"9@CT274_613","Cetona-Loc. Piscinale","42.9671848229987","11.9138801968037","9@CT274"
"9@CT275_613","Cetona-Villette","42.9664853222211","11.9104095952396","9@CT275"
"9@CT276_613","Cetona-Distributore Fina","42.967062371266","11.9050665449336","9@CT276"
"9@CT277_613","Cetona-Via Risorgimento, 41","42.966570912597","11.90190303694","9@CT277"
"9@CT278_613","Cetona-Impianti Sportivi","42.9664042730099","11.8976437710305","9@CT278"
"9@CT279_613","Cetona-Loc. Pietreto","42.969746484856","11.8904623067713","9@CT279"
"9@CT280_613","Cetona-Loc.Campagna S.P. 21","42.9736429367775","11.8894877425935","9@CT280"
"9@CT393_613","S.P. Montagna Cetona (N.89)","42.937925238354","11.888708146908","9@CT393"
"9@CT425_613","S.Casciano B. Area Attrezzata Cancelli","42.9044181476189","11.8774722371432","9@CT425"
"9@CT426_613","S.Casciano B.-Bv Camporsevoli","42.9228990250626","11.8882482788634","9@CT426"
"9@CT427_613","S.Casciano B.-Bv Belvedere","42.950814663939","11.8859517713294","9@CT427"
"9@CT428_613","Bv. Cetona","42.9624539993192","11.8796334031557","9@CT428"
"9@CT495_613","Bv. Palazzo Tosoni","42.975212101124","11.9262231701717","9@CT495"
"9@CT496_613","Bv. Ponticelli","42.9577731715997","11.9110457045947","9@CT496"
"9@CT497_613","Cetona-Ss 321 Direzione S.Casciano Km 9,","42.955492325516","11.9142474725671","9@CT497"
"9@CT498_613","Cetona-Ss 321 Direzione S.Casciano Km 10","42.9501337235614","11.9190613822082","9@CT498"
"9@CT499_613","Cetona-Loc. Casale Del Pino Km. 11,35","42.9485832194437","11.9205416547918","9@CT499"
"9@CT500_613","Cetona-Ss 321 Direzione S.Casciano Km 11","42.9416077559076","11.9250112795033","9@CT500"
"9@CT501_613","Cetona-Poggio Lumacchioni Km. 14,6","42.9176562164211","11.9169079206905","9@CT501"
"9@CT502_613","Cetona-Ss 321 Direzione S.Casciano Km 15","42.9139658080404","11.9180904478651","9@CT502"
"9@CT503_613","Piazze-Ss 321 Direzione S.Casciano Km 16","42.9085838237859","11.9169298973628","9@CT503"
"9@CT504_613","Piazze-Via Prov.Le (P.Zza Del Mercato)","42.9073255833715","11.9166606937952","9@CT504"
"9@CT505_613","Piazze-Via Provinciale Nc.203","42.9072298652386","11.9138803079662","9@CT505"
"9@CT506_613","Piazze-Bv. Via Dell'Olivo","42.9064925167648","11.9113411647565","9@CT506"
"9@CT507_613","Macchiarelle - Ss 321 Km 18,3","42.9046472748949","11.9029799104917","9@CT507"
"9@CT508_613","Piazze-Ss 321 Direzione S.Casciano Km 18","42.9011679128464","11.897477939825","9@CT508"
"9@CT530_613","Piazze-Ss 321 Direzione Chiusi Km 18,8","42.9013331368014","11.8977092063315","9@CT530"
"9@CT531_613","Macchiarelle -Ss 321 Km 18,2","42.9044783171512","11.9031081617312","9@CT531"
"9@CT532_613","Piazze-Bv. Via Dell'Olivo","42.9064747410765","11.9115201605737","9@CT532"
"9@CT533_613","Piazze-Via Provinciale Nc.197","42.9071506853038","11.9139376648332","9@CT533"
"9@CT534_613","Piazze-Via Provinciale Nc.36 (Bar)","42.9072382701405","11.9172598372786","9@CT534"
"9@CT535_613","Piazze-Via Del Tamburino Nc.130","42.9058046405453","11.9247759711889","9@CT535"
"9@CT547_613","Piazze-Via Del Tamburino Nc.113","42.9058437763547","11.9245756851441","9@CT547"
"9@CT548_613","Piazze-Via Del Tamburino","42.9066162947877","11.9210147010822","9@CT548"
"9@CT549_613","Piazze-Ss 321 Direzione Chiusi Km 16,5","42.9087302422636","11.916661198007","9@CT549"
"9@CT550_613","Cetona-Ss 321 Direzione Chiusi Km 14,6","42.9177826207559","11.9167178703503","9@CT550"
"9@CT551_613","Cetona-Ss 321 Direzione Chiusi Km 11,9","42.9418352509032","11.9249178830322","9@CT551"
"9@CT552_613","Cetona-Loc. Az. Agr. Casasardi","42.948728561057","11.9204917809805","9@CT552"
"9@CT553_613","Cetona-Ss 321 Direzione Chiusi Km 9,4","42.9557309845347","11.9139667395118","9@CT553"
"9@CT554_613","Bv. Ponticelli Ang. Via Delle Gore","42.9579612718244","11.9108784429936","9@CT554"
"9@CT555_613","Cetona-Ss 321 Direzione Chiusi Km 3,9","42.9760314440914","11.9378149639565","9@CT555"
"9@CT619_613","Cetona-Via Risorgimento N. 1","42.9655120976159","11.9005153494087","9@CT619"
"9@CT640_613","Piazze-Loc. Villa Emma Km 0,070","42.9045165596982","11.9314422462504","9@CT640"
"9@CT641_613","Piazze-Loc. Villa Emma Km 0,040","42.9047389058942","11.9311986339145","9@CT641"
"9@CT648_613","Cetona-S.P. 89 Montagna Km 7,10","42.9297338312265","11.8897178597293","9@CT648"
"9@CT651_613","Cetona-V.Del Polacco (Fattoria Sgarroni)","42.9774393959795","11.9321710665596","9@CT651"
"9@CV001_613","Chiusi Stazione-P.Zza Dante","43.0017795424274","11.956998866376","9@CV001"
"9@CV002_613","Via Cassia Aurelia, 71","43.0042336703176","11.9567265605795","9@CV002"
"9@CV003_613","Via Cassia Aurelia, 55","43.0058282885814","11.9541665812809","9@CV003"
"9@CV004_613","Fontina","43.0072865266434","11.950172449875","9@CV004"
"9@CV005_613","Bv. Nenni","43.0089887818011","11.9492816498395","9@CV005"
"9@CV006_613","Pozzarelli","43.0106264875288","11.948798743127","9@CV006"
"9@CV007_613","Cassia Aurelia (Rione Carducci)","43.0137466794102","11.9463438043793","9@CV007"
"9@CV008_613","Chiusi-Via Cassia Aurelia Ii, 67","43.0152718825246","11.9458584743757","9@CV008"
"9@CV009_613","Chiusi Citta'-Via C.Aurelia (Leon D'Oro)","43.0157182242112","11.9428612646821","9@CV009"
"9@CV010_613","Bv. Montallese","43.0178108003482","11.9378182566786","9@CV010"
"9@CV011_613","Bv. Palazzo Tosoni (Distr. Fina)","43.0166594700732","11.929874686259","9@CV011"
"9@CV012_613","Chiusi-Loc Peraio","43.0168382740007","11.9169705902537","9@CV012"
"9@CV013_613","Querce Al Pino-Hotel Il Pino","43.0159535457825","11.9087611055961","9@CV013"
"9@CV014_613","Poggio Olivo","43.0217218938048","11.895460523843","9@CV014"
"9@CV015_613","Macciano-(Ex Scuole)","43.0242982190661","11.8902964878763","9@CV015"
"9@CV016_613","Garden House","43.028182740876","11.8814074620199","9@CV016"
"9@CV017_613","Chiusi-Loc.Casaccia-(La Bussola Inn)","43.0277528496749","11.8705747920091","9@CV017"
"9@CV018_613","Chiusi-Palazzo Di Piero","43.0293302397324","11.8626062398113","9@CV018"
"9@CV020_613","Ristorante Patriarca","43.0195543537447","11.9038167181686","9@CV020"
"9@CV089_613","Chiusi-Palazzo Di Piero","43.0292946777691","11.8624082121771","9@CV089"
"9@CV090_613","Chiusi-Loc. Casaccia (Ceramiche Nasorri)","43.0276389194371","11.870988356867","9@CV090"
"9@CV091_613","Officina Feri","43.028135786484","11.8805906976398","9@CV091"
"9@CV092_613","Macciano-(Distributore Erg)","43.0241376972792","11.8904131469004","9@CV092"
"9@CV093_613","Ristorante Patriarca","43.019526544254","11.9036845357544","9@CV093"
"9@CV094_613","Querce Al Pino (Ingr. A1)","43.0163505074014","11.9077618821127","9@CV094"
"9@CV095_613","Chiusi-Loc Peraio","43.0167270622293","11.9171929638686","9@CV095"
"9@CV096_613","Bv. Palazzo Tosoni","43.0166611493883","11.9300937996072","9@CV096"
"9@CV097_613","Bv. Montallese","43.0179084843222","11.9382217258496","9@CV097"
"9@CV098_613","Chiusi-Via Cassia Aurelia Nc.32","43.0155416813995","11.943423407771","9@CV098"
"9@CV099_613","Cassia Aurelia (Rione Carducci)","43.0130873482405","11.9460729926435","9@CV099"
"9@CV100_613","Pozzarelli","43.011027238165","11.9486216171727","9@CV100"
"9@CV101_613","Bv. Nenni","43.0092729771628","11.9490852085208","9@CV101"
"9@CV102_613","Fontina","43.0069611293638","11.9502905946333","9@CV102"
"9@CV103_613","Via Cassia Aurelia, 26","43.0056794935965","11.9543496079871","9@CV103"
"9@CV104_613","Chiusi-P.Zza Matteotti Ang Via Da Vinci","43.0043512410489","11.9560970737585","9@CV104"
"9@CV105_613","Chiusi Scalo-(Edilcentro)S.S.321","42.9931791150674","11.9539266384116","9@CV105"
"9@CV262_613","Chiusi-Via Mazzini (Molitoria Nigi)","42.9881404368405","11.9509944314886","9@CV262"
"9@CV263_613","Chiusi-Via Mazzini (Distributore Tamoil)","42.9914226932372","11.9529041209369","9@CV263"
"9@CV264_613","Chiusi-Via Mazzini (Molitoria Nigi)","42.9886247674643","11.9511307055999","9@CV264"
"9@CV271_613","Chiusi-Sp20 Trav.Cassia Aurelia","43.0093245111624","11.9272789773827","9@CV271"
"9@CV272_613","Chiusi-Sp20 Ang Str.Del Mulinaccio","43.0040720243159","11.921588390755","9@CV272"
"9@CV310_613","Bv. Acquaviva","43.0663454848631","11.9038779179697","9@CV310"
"9@CV311_613","Montallese Ss 326","43.0660397884602","11.9061724227898","9@CV311"
"9@CV312_613","Montallese-Incr. V.Osteriaccia/V.Fioren.","43.0620579926088","11.9114375968435","9@CV312"
"9@CV313_613","Montallese-Via Fiorentina","43.0574683566212","11.9153493892754","9@CV313"
"9@CV314_613","Montallese (Distributore Api)","43.0555676923982","11.9176750832037","9@CV314"
"9@CV315_613","Montallese S.S.326","43.0514369157016","11.9216473951068","9@CV315"
"9@CV316_613","Montallese-Zona Quattro Poderi","43.0473994479679","11.9250534265272","9@CV316"
"9@CV317_613","Montallese-Loc.Dolciano","43.0354912661339","11.9283086688652","9@CV317"
"9@CV318_613","Montallese-Ang. Via Fonterotella","43.0287467297868","11.9295556616775","9@CV318"
"9@CV319_613","Chiusi-Giovancorso 1","43.0208583360624","11.9355537782184","9@CV319"
"9@CV320_613","Chiusi-Giovancorso 2","43.0182949237685","11.9370237328682","9@CV320"
"9@CV322_613","Chiusi-Via Mazzini, 50","43.0009116567282","11.9562708591426","9@CV322"
"9@CV323_613","Chiusi-Portovecchio-Via Trieste","42.9981617341976","11.9531013398719","9@CV323"
"9@CV324_613","Chiusi-Portovecchio-Via Trento","42.9985431938005","11.9524510636637","9@CV324"
"9@CV325_613","Chiusi-Portovecchio-Via Trieste, 77","42.9991180014043","11.954073107258","9@CV325"
"9@CV326_613","Chiusi-Via Mazzini (Consorzio)","42.9976337001182","11.9561135776113","9@CV326"
"9@CV327_613","Chiusi-Via Mazzini, 112","42.9950955272469","11.9552036903648","9@CV327"
"9@CV328_613","Le Biffe-Via Fondovalle (Capolinea)","42.9915385824488","11.9539951926335","9@CV328"
"9@CV329_613","Chiusi Scalo-Via Mazzini","42.9928756454927","11.9538231632504","9@CV329"
"9@CV330_613","Chiusi-Via Mazzini, 55","42.9955617889888","11.9556277813677","9@CV330"
"9@CV331_613","Chiusi-Via Mazzini (Consorzio)","42.9982707796783","11.9561993455278","9@CV331"
"9@CV349_613","Chiusi Citta'-La Pesa","43.0147916837554","11.9473644788643","9@CV349"
"9@CV351_613","Chiusi Citta'-Scuola Media","43.0144647209775","11.9503170511628","9@CV351"
"9@CV361_613","Chiusi Citta'-Via Garibaldi, 9","43.015318491032","11.9466705571808","9@CV361"
"9@CV362_613","Chiusi Citta'-V.Carbone Ang V. C.Aurelia","43.0156064062895","11.9452809513555","9@CV362"
"9@CV373_613","Chiusi-Giovancorso 1","43.0188545894105","11.936443005197","9@CV373"
"9@CV374_613","Chiusi-Giovancorso 92","43.0214059336597","11.9356182997006","9@CV374"
"9@CV378_613","Montallese-Via Fonteregina, 168","43.0293782727192","11.9293310507397","9@CV378"
"9@CV379_613","Montallese-Loc.Dolciano","43.0359249467189","11.9286024179099","9@CV379"
"9@CV380_613","Montallese-Zona Quattro Poderi","43.0477694088941","11.9249276829058","9@CV380"
"9@CV381_613","Montallese Capolinea","43.053291920418","11.9202314563604","9@CV381"
"9@CV382_613","Montallese (Distributore Api)","43.0560537210283","11.9171533407439","9@CV382"
"9@CV383_613","Montallese-Via Fiorentina,54","43.0581772569111","11.9150913734811","9@CV383"
"9@CV384_613","Montallese-Via Fiorentina,148","43.0606503928427","11.9128929374844","9@CV384"
"9@CV385_613","Montallese Stazione F.S.","43.0646861300767","11.9087954520184","9@CV385"
"9@CV386_613","Bv. Per Chianciano","43.0665339311775","11.9055064660416","9@CV386"
"9@CV448_613","Montallese-Via Case Nuove, 5","43.0665684998081","11.9039684589787","9@CV448"
"9@CV494_613","Chiusi-Via Mazzini (Mobilificio Salima)","42.9909217426936","11.9525049127047","9@CV494"
"9@CV638_613","Querce Al Pino Km. 0,115","43.0150101579261","11.9067973546176","9@CV638"
"9@CV639_613","Querce Al Pino Km. 0,020","43.0151079437778","11.9084680217281","9@CV639"
"9@CV652_613","Chiusi-Via Oslavia (Mini Centro Comm.Le)","43.0030528542143","11.9531760680541","9@CV652"
"9@CV655_613","Macciano-(Officina Bernardini)","43.0215550669939","11.8956009128207","9@CV655"
"9@FJ001_613","Casa Fioravanti","42.8421713309087","11.6283546738732","9@FJ001"
"9@FJ002_613","C. Fioravanti - H. Fungo","42.8422032665359","11.6281678336055","9@FJ002"
"9@FJ003_613","Faggia","42.8420985783899","11.6252479675665","9@FJ003"
"9@FJ004_613","Faggia","42.8419821775696","11.6249720019505","9@FJ004"
"9@FJ005_613","Bagnolo Bianchi","42.8403214210385","11.6199568494024","9@FJ005"
"9@FJ006_613","Bagnolo Bianchi","42.8402484996898","11.6197713281796","9@FJ006"
"9@FJ007_613","Bagnolo","42.8406238690972","11.6156555778068","9@FJ007"
"9@FJ008_613","Bagnolo","42.8408184935898","11.6155318881163","9@FJ008"
"9@FJ009_613","Fonte Spilli","42.8427758811197","11.6085075718178","9@FJ009"
"9@FJ010_613","Fonte Spilli","42.8428633641313","11.6089122443026","9@FJ010"
"9@FJ011_613","Marroneto Rettilineo","42.8390839413874","11.602662054724","9@FJ011"
"9@FJ012_613","Marroneto Rettilineo","42.8388440534333","11.6019615196856","9@FJ012"
"9@FJ013_613","Marroneto","42.8380106137623","11.5992703157798","9@FJ013"
"9@FJ014_613","Marroneto","42.8381432813176","11.5988170466449","9@FJ014"
"9@FJ015_613","Marroneto Pacini","42.8376229082411","11.5970758989383","9@FJ015"
"9@FJ016_613","Marroneto Pacini","42.8372889215253","11.5962111763416","9@FJ016"
"9@FJ017_613","Marroneto Adorno","42.8358069213179","11.5939412721742","9@FJ017"
"9@FJ018_613","Marroneto Adorno","42.8357583475499","11.5934623153955","9@FJ018"
"9@FJ019_613","S.Fiora San Rocco","42.8358874721108","11.5894585149776","9@FJ019"
"9@FJ020_613","S.Fiora San Rocco","42.835835290293","11.5897191449735","9@FJ020"
"9@FJ021_613","Santa Fiora Scuole Medie","42.8358473540593","11.5875818078358","9@FJ021"
"9@FJ022_613","Santa Fiora Scuole Medie","42.8358609284106","11.5870133193055","9@FJ022"
"9@FJ023_613","S.Fiora Stadio","42.8348529344362","11.5857841188358","9@FJ023"
"9@FJ024_613","Santa Fiora Martiri Niccioleta","42.8343781768592","11.5841067118683","9@FJ024"
"9@FJ025_613","Santa Fiora Centrale","42.8325213243496","11.5850137959097","9@FJ025"
"9@FJ026_613","S.Fiora Cimitero","42.8333844373225","11.581772757634","9@FJ026"
"9@FJ027_613","S.Fiora Cimitero","42.8332402367191","11.5818222964782","9@FJ027"
"9@FJ028_613","San Bastiano","42.8380550817369","11.5777082490083","9@FJ028"
"9@FJ029_613","San Bastiano","42.8379018443285","11.5778112609844","9@FJ029"
"9@FJ030_613","San Bastiano Pascoli","42.8421258171274","11.5748871374653","9@FJ030"
"9@FJ031_613","San Bastiano Marconi","42.8432264622801","11.5738378229107","9@FJ031"
"9@FJ032_613","Meleto","42.8455433874207","11.5732151437456","9@FJ032"
"9@FJ033_613","Marconi","42.8465028018893","11.5724232262048","9@FJ033"
"9@FJ034_613","Bagnore","42.8469414894276","11.5671032769423","9@FJ034"
"9@FJ035_613","Bagnore","42.8468318554996","11.5672579415608","9@FJ035"
"9@FJ036_613","Unibon","42.8488635822703","11.5634211748681","9@FJ036"
"9@FJ037_613","Unibon","42.8486313973535","11.5635679648126","9@FJ037"
"9@FJ038_613","Libero","42.851749028352","11.5614138105755","9@FJ038"
"9@FJ039_613","Libero","42.8513768871417","11.56160206641","9@FJ039"
"9@KP064_613","Ponticelli - P.Za Di Vittorio","42.9319154447133","11.9712283057965","9@KP064"
"9@LG065_613","La Croce Via Gramsci Nc. 18","43.2579451414796","11.7533051605714","9@LG065"
"9@MM003_613","Castelnuovo Abate","42.9948127990712","11.519774613808","9@MM003"
"9@MM004_613","Torrente Ribusuoli","43.0217953913026","11.5174756665228","9@MM004"
"9@MM005_613","Bivio Podernuovi","43.0351945610814","11.5043693135907","9@MM005"
"9@MM006_613","La Croce","43.0397652112532","11.5015121658884","9@MM006"
"9@MM007_613","Bivio Greppo","43.043639574167","11.4965147799091","9@MM007"
"9@MM008_613","Poggio Martelli","43.0500454570333","11.4970137788781","9@MM008"
"9@MM009_613","Biv.Ex Polveriera","43.0269095961247","11.5110655154463","9@MM009"
"9@MM014_613","Poggio Martelli","43.050005249024","11.4969087681811","9@MM014"
"9@MM015_613","Bivio Greppo","43.0436562527513","11.4963821861464","9@MM015"
"9@MM016_613","La Croce","43.0397410214983","11.501395422808","9@MM016"
"9@MM017_613","Bivio Podernuovi","43.0352028453562","11.5042048003082","9@MM017"
"9@MM018_613","Torrente Ribusuoli","43.0217560952574","11.5173709744089","9@MM018"
"9@MM019_613","Castelnuovo Abate","42.9948308177984","11.5198695425904","9@MM019"
"9@MM020_613","Crocino","42.9888964980665","11.5319771469106","9@MM020"
"9@MM022_613","Macchiarelle","43.0109538826191","11.5266824899592","9@MM022"
"9@MM023_613","Macchiarelle","43.0113444650648","11.5271361819091","9@MM023"
"9@MM024_613","Monte Amiata Scalo","42.9765437988175","11.545826824529","9@MM024"
"9@MM025_613","Crocino","42.9888615858935","11.5318661819023","9@MM025"
"9@MM029_613","Torrenieri Scuole","43.0876540963672","11.5455195532022","9@MM029"
"9@MM209_613","Torrenieri Stadio","43.0869691289115","11.5451842901299","9@MM209"
"9@MM213_613","Centrale Elettrica","43.0843973131263","11.548286118763","9@MM213"
"9@MM214_613","Torrenieri C.Elettrica","43.0844172945021","11.5483713426826","9@MM214"
"9@MM269_613","Bv.Vergelle","43.0940430008592","11.5586075316144","9@MM269"
"9@MM273_613","Torrenieri Stadio","43.0869903767908","11.5453421741677","9@MM273"
"9@MM321_613","B.V Vergelle Opp","43.0940802133091","11.5587681791662","9@MM321"
"9@MM451_613","Montepulciano-Loc.Argiano","43.0643692445844","11.8778808214065","9@MM451"
"9@MM453_613","Montalcino Stazione Es","43.0568732519449","11.4886130767516","9@MM453"
"9@MM454_613","Montalcino Fortezza","43.0554223926446","11.4889506036784","9@MM454"
"9@MM455_613","P:Ta Cerbara","43.055257108445","11.4916618277843","9@MM455"
"9@MM456_613","M0ntalcino Op.Vigili Del","43.0530891067977","11.4979218581932","9@MM456"
"9@MM457_613","14 Traversa Dei Monti","43.0520516122639","11.5056482985114","9@MM457"
"9@MM458_613","Bv. S.Filippo","43.0487299400873","11.5130096368452","9@MM458"
"9@MM459_613","Bv. La Rasina","43.0525251108915","11.5202396475524","9@MM459"
"9@MM460_613","Bivio Dell'Asso","43.0660599964905","11.5467327088249","9@MM460"
"9@MM470_613","Bivio Dell'Asso","43.0661650571444","11.5466648488201","9@MM470"
"9@MM471_613","Bv. La Rasina","43.0526184086842","11.5202227199304","9@MM471"
"9@MM472_613","Bv. S.Filippo","43.0489443514385","11.5135210372567","9@MM472"
"9@MM473_613","I Colli","43.0521716517258","11.5055450175002","9@MM473"
"9@MM474_613","Montalcino Vigili Del Fuo","43.0531684832551","11.4978883201913","9@MM474"
"9@MM475_613","Porta Cerbara","43.0554686062418","11.4919848569577","9@MM475"
"9@MM476_613","Montalcino     Fortezza","43.0555124787851","11.4890355352119","9@MM476"
"9@MM477_613","Montalcino Staz.Di Serviz","43.0569329760844","11.4886479040315","9@MM477"
"9@MM797_613","Traversa Dei Monti (Km 26+270)","43.0901236506019","11.553220591752","9@MM797"
"9@MM798_613","Traversa Dei Monti (Km 26+170)","43.0903703929933","11.5538721969756","9@MM798"
"9@MM831_613","Torrenieri","43.0863543051443","11.5481325233368","9@MM831"
"9@MM841_613","Torrenieri Fs.","43.0870017823524","11.5521121397016","9@MM841"
"9@MM844_613","Via Pascoli","43.0851465771624","11.5469066608509","9@MM844"
"9@MM860_613","Pod. Pascena","42.9780176463425","11.4307050724195","9@MM860"
"9@MM861_613","Pod.Mandrielle","42.9690754960714","11.4330319350921","9@MM861"
"9@MM862_613","Pod. San Giacomo","42.9684114891492","11.4297407523451","9@MM862"
"9@MM863_613","S. Angelo Scalo","42.965916887361","11.426800777303","9@MM863"
"9@MM864_613","Osticcio","43.0514563107855","11.4898204977938","9@MM864"
"9@MM865_613","Bergheta","43.0464647563277","11.4885207972353","9@MM865"
"9@MM866_613","Bellaria","43.0447013506856","11.4852612181066","9@MM866"
"9@MM867_613","Poggio Tagliatone","43.0370425386457","11.4798871923445","9@MM867"
"9@MM868_613","B.Villa Tolli","43.0338087999648","11.4805887489806","9@MM868"
"9@MM869_613","Lume Spento","43.0303428967335","11.481096406224","9@MM869"
"9@MM871_613","Pian Di Conte","42.9988467818474","11.4578790382725","9@MM871"
"9@MM872_613","Campo Giovanni","42.9925999241562","11.44154486836","9@MM872"
"9@MM873_613","B. Argiano","42.9852444577472","11.4345647719025","9@MM873"
"9@MM874_613","Pod Pascena","42.9779726675994","11.430565617699","9@MM874"
"9@MM875_613","Pod. Mandrielle","42.9691100066211","11.4329673283828","9@MM875"
"9@MM876_613","Pod. San Giacomo","42.9683946885084","11.4295182423562","9@MM876"
"9@MM877_613","Villa Banfi","42.9662601595282","11.423639636671","9@MM877"
"9@MM878_613","Montalcino","43.0608277349688","11.4896730943044","9@MM878"
"9@MM882_613","Biv. Argiano","42.9852536216397","11.43481980323","9@MM882"
"9@MM883_613","Campo Giovanni","42.9926597839784","11.4417693826818","9@MM883"
"9@MM884_613","Pian Di Conte","42.9988860658131","11.4580119906604","9@MM884"
"9@MM886_613","Lume Spento","43.0303597116451","11.4812178584426","9@MM886"
"9@MM887_613","Bv. Villa Tolli","43.0339035600446","11.4806342603661","9@MM887"
"9@MM888_613","Poggio Tagliatone","43.0370633708979","11.4800850482644","9@MM888"
"9@MM889_613","Bellaria","43.044813589739","11.4859213647986","9@MM889"
"9@MM890_613","Bergheta","43.0463796786759","11.4885905271677","9@MM890"
"9@MM891_613","Osticcio","43.051384159293","11.4899375337543","9@MM891"
"9@MM892_613","Marrucheto","42.9669567801592","11.4276300760716","9@MM892"
"9@MM895_613","S. Angelo Colle","42.9956111588601","11.4610855031302","9@MM895"
"9@MM896_613","Viale Strozzi","43.0599509720504","11.4864781434887","9@MM896"
"9@MM897_613","Viale Strozzi [P]","43.060129011034","11.4866089920164","9@MM897"
"9@MM927_613","Casanova Di Neri","43.0571420357422","11.5219044221301","9@MM927"
"9@MM928_613","Casanova Di Neri","43.0570898582375","11.5220329326693","9@MM928"
"9@MM937_613","Str.P.Dei Monti Km 29,600","43.0666095703572","11.5383143485973","9@MM937"
"9@MM938_613","Str.P.Dei Monti Km 29.600","43.066662500441","11.5387166505562","9@MM938"
"9@MR038_613","S.Albino-Hotel S.Gallo (Confine Mp/Ch)","43.0637074031343","11.81804970335","9@MR038"
"9@MR039_613","S.Albino-Angolo Via Trifoglio","43.065319308185","11.814387224774","9@MR039"
"9@MR040_613","S.Albino-Hotel Tre Stelle","43.0674859564056","11.8093974114154","9@MR040"
"9@MR041_613","S.Albino-Via Terme Sud, 61","43.0692878697647","11.8080704807846","9@MR041"
"9@MR044_613","Sant'Albino Terme","43.0731724614572","11.8022266336443","9@MR044"
"9@MR047_613","Montepulciano-Ristorante Pulcino","43.0771140116799","11.7835182362395","9@MR047"
"9@MR049_613","Montepulciano-Ristorante Nc 5","43.0853190170299","11.7778735911998","9@MR049"
"9@MR058_613","Montepulciano-Ang. Via Del Poggio","43.0849642151786","11.7780233890287","9@MR058"
"9@MR060_613","Montepulciano-Ristorante Pulcino","43.0771603842431","11.7832777478531","9@MR060"
"9@MR066_613","S.Albino-Via Terme Sud, 67","43.0690980149096","11.8081017215938","9@MR066"
"9@MR067_613","S.Albino-Via Terme Sud (Ang. V. Mimosa)","43.0672117485561","11.8093803350538","9@MR067"
"9@MR068_613","S.Albino-Villa Ambra","43.0646162251466","11.8156981497586","9@MR068"
"9@MR069_613","S.Albino-Ang. V.Castagni (Confine Mp/Ch)","43.0627649550002","11.817380219208","9@MR069"
"9@MR173_613","Via Calamandrei, 30","43.1050159272426","11.7860026832788","9@MR173"
"9@MR174_613","Montepulciano-Le Corolle (Esterno)","43.1098374226886","11.7891511023187","9@MR174"
"9@MR175_613","Montepulciano-Le Caggiole","43.1156948040043","11.8007462672793","9@MR175"
"9@MR176_613","Montepulciano-Le Caggiole","43.117011135447","11.8109494605416","9@MR176"
"9@MR177_613","Gracciano Sp 326 Km 38+090","43.1261271984474","11.8248984597438","9@MR177"
"9@MR178_613","Gracciano-Via Lazio Nc 43","43.1288098212195","11.826884419062","9@MR178"
"9@MR179_613","Gracciano, Sp326 Km 38+170","43.1256222685675","11.8247294717893","9@MR179"
"9@MR180_613","Gracciano-Zona Artigianale","43.1352156188393","11.8261807644752","9@MR180"
"9@MR181_613","Abbadia Di Mp-Via 2 Giugno","43.1398374501523","11.8211481559472","9@MR181"
"9@MR183_613","Abbadia Di Mp-V.Resisten. Ang V.Cagnacci","43.1430253169858","11.8193059440126","9@MR183"
"9@MR184_613","Abbadia Di Mp-V.Resistenza (Asilo)","43.1454526273996","11.8227438232656","9@MR184"
"9@MR185_613","Abbadia Di Mp-V.Resisten. (Parco Giochi)","43.149387301982","11.8302143350909","9@MR185"
"9@MR186_613","Via Milano","43.1391608789959","11.8592845778316","9@MR186"
"9@MR187_613","Montepulciano Stazione F.S.","43.1353763656409","11.8563069189537","9@MR187"
"9@MR188_613","Montepulciano Sc-Via Cagliari,16","43.1335243918042","11.8558317920969","9@MR188"
"9@MR189_613","Montepulciano Sc-Via Cagliari,54","43.1317902552682","11.8574875508627","9@MR189"
"9@MR190_613","Montepulciano Sc-Via Rovisci, 32","43.127906079196","11.857804464304","9@MR190"
"9@MR191_613","Acquaviva-S.S.326, 54","43.1151757417999","11.8618866085511","9@MR191"
"9@MR192_613","Acquaviva-Via Dei Mori, 48","43.1164363425305","11.8653007908995","9@MR192"
"9@MR193_613","Acquaviva-Via Dei Mori, 29","43.1214976750227","11.8690295135142","9@MR193"
"9@MR194_613","Acquaviva-Via Dei Mori, 40","43.1289202592666","11.8792881677645","9@MR194"
"9@MR195_613","Acquaviva-Via Dei Mori, 9","43.1357084473301","11.8839669453617","9@MR195"
"9@MR196_613","Acquaviva-Via Dei Mori (Dep.Carbur.)","43.141952473052","11.8882583076665","9@MR196"
"9@MR197_613","Bv. Chianacce","43.1450867943863","11.89640795536","9@MR197"
"9@MR198_613","Valiano-Via Lauretana Sud, 78","43.1473254141541","11.9006256024325","9@MR198"
"9@MR201_613","Valiano-P.Zza Della Torre","43.1481228065664","11.9019846661464","9@MR201"
"9@MR202_613","Valiano-Via Lauretana Sud, 26","43.1476694912714","11.9009832889048","9@MR202"
"9@MR203_613","Acquaviva-Via Dei Mori,9","43.1358790521661","11.8839856656633","9@MR203"
"9@MR204_613","Acquaviva-Via Vittorino,9 (Capolinea)","43.1140407545791","11.8647817563638","9@MR204"
"9@MR205_613","Acquaviva-Ang. Via Virgilio","43.1153670286154","11.8617986799283","9@MR205"
"9@MR206_613","Acquaviva-Fratelli Braschi","43.1163297547058","11.859847924892","9@MR206"
"9@MR207_613","Acquaviva-V. Del Buonviaggio,4","43.1169978342083","11.8592368616857","9@MR207"
"9@MR208_613","Acquaviva-V. Del Buonviaggio,16","43.118315054159","11.8593120089167","9@MR208"
"9@MR209_613","Montepulciano Sc-Via Rovisci, 34","43.1278289893189","11.8580067818572","9@MR209"
"9@MR210_613","Montepulciano Sc-Via Cagliari (Sim)","43.1319942593682","11.8574310376796","9@MR210"
"9@MR211_613","Montepulciano Sc-Via Cagliari,18","43.133437084232","11.8560828313702","9@MR211"
"9@MR212_613","Montepulciano Sc-Via Firenze, 95","43.1374794308705","11.8542993598314","9@MR212"
"9@MR213_613","Abbadia Di Mp-V. Lauret. Ovest, 43","43.1481538010071","11.8449047839464","9@MR213"
"9@MR214_613","Montepulciano Sc-V.Lauret.Ovest, 29","43.1459985762139","11.8513605226791","9@MR214"
"9@MR215_613","Montepulciano Sc-Ang V. Caselle","43.1425880718865","11.855788323647","9@MR215"
"9@MR216_613","Abbadia Di Mp-V. Lauret. Ovest, 405","43.1514847085918","11.8389520369532","9@MR216"
"9@MR217_613","Abbadia Di Mp-V.Della Resistenza, 313","43.1510964426263","11.8353676950013","9@MR217"
"9@MR218_613","Abbadia Di Mp-Via Della Resistenza","43.148347288145","11.8271227468725","9@MR218"
"9@MR219_613","Abbadia Di Mp-V.Resistenza (Scuola)","43.145475882413","11.8225313010809","9@MR219"
"9@MR220_613","Abbadia Di Mp-Via Della Resistenza, 23","43.1429686502634","11.8188653487983","9@MR220"
"9@MR222_613","Abbadia Di Mp-Via 2 Giugno","43.1397286145321","11.8211800346859","9@MR222"
"9@MR223_613","Gracciano-Zona Artigianale","43.135728208636","11.8256603480955","9@MR223"
"9@MR224_613","Gracciano Dir Az.Agr","43.1353171458204","11.8426612680605","9@MR224"
"9@MR225_613","Gracciano  Az Agrpoliz","43.1352990884403","11.8427530730465","9@MR225"
"9@MR226_613","Montepulciano-Le Caggiole, 18 Sp 17","43.1208963655471","11.8175359978185","9@MR226"
"9@MR227_613","Montepulciano-Le Caggiole","43.1167664505912","11.8110134721371","9@MR227"
"9@MR228_613","Montepulciano-Le Caggiole, 31","43.1161619456578","11.8050140559977","9@MR228"
"9@MR229_613","Le Grazie","43.1068649074932","11.7860589492187","9@MR229"
"9@MR230_613","Montepulciano-Via Calamandrei, 26","43.1049473741717","11.7858598513106","9@MR230"
"9@MR232_613","Gracciano-Az Agr. Poliziano","43.1362555537991","11.8446985582152","9@MR232"
"9@MR233_613","Gracciano-Arred. Falciani","43.1368724356219","11.8457798675744","9@MR233"
"9@MR234_613","Gracciano-Scaccini","43.1367679255744","11.849252997287","9@MR234"
"9@MR285_613","Bv. Abbadia Di Montepulciano","43.1416048722284","11.8188478929689","9@MR285"
"9@MR286_613","Gracciano","43.1319684395895","11.8275660225406","9@MR286"
"9@MR287_613","Bv. Nottola","43.1210556673521","11.8231237723307","9@MR287"
"9@MR288_613","S.Albino Terme","43.0729435528035","11.8013235311449","9@MR288"
"9@MR289_613","S.Albino Centro","43.0711569736711","11.8063165586059","9@MR289"
"9@MR293_613","Montepulciano Ospedale","43.1015177501443","11.7855656200518","9@MR293"
"9@MR297_613","S.Albino Centro","43.071273271811","11.8063363613108","9@MR297"
"9@MR298_613","S.Albino Terme","43.0730728478767","11.801206111795","9@MR298"
"9@MR299_613","Montepulciano Ospedale","43.1015987521751","11.7856668609109","9@MR299"
"9@MR300_613","Bv. Nottola","43.1213744295814","11.8243808974069","9@MR300"
"9@MR301_613","Gracciano","43.1319364909332","11.8277328535851","9@MR301"
"9@MR302_613","Bv. Abbadia Di Montepulciano","43.1417484536805","11.8188054338467","9@MR302"
"9@MR309_613","Montepulciano-Bv.Argiano","43.0644490993004","11.8772122093833","9@MR309"
"9@MR338_613","Montepulciano-Autojolly","43.0816452958358","11.7796751180309","9@MR338"
"9@MR351_613","Montepulciano-Autojolly","43.0817041048982","11.7797376012904","9@MR351"
"9@MR368_613","Montepulciano-V.Le I Maggio Opp. Scuole","43.0951820485553","11.7842096497327","9@MR368"
"9@MR369_613","P.Ta Delle Farine","43.0915317242247","11.7822428658915","9@MR369"
"9@MR370_613","Opposta S.Biagio","43.0874981272897","11.7763345352561","9@MR370"
"9@MR371_613","Str.Pienza Il Villino","43.087012799932","11.7627504856925","9@MR371"
"9@MR372_613","Str.Pienza Le Fornaci","43.0904428850365","11.7542651203278","9@MR372"
"9@MR373_613","Str.Pienza La Buca","43.1001487216239","11.7423682394339","9@MR373"
"9@MR387_613","Montepulciano-S.Polo","43.0636109424978","11.8858182435304","9@MR387"
"9@MR430_613","Montepulciano-S.Biagio","43.0876824524331","11.776983042766","9@MR430"
"9@MR431_613","P.Ta Delle Farine Opp.","43.0916953341898","11.7826315792865","9@MR431"
"9@MR432_613","Viale I Maggio (Bar Cacciatore)","43.0951221808752","11.7844495954822","9@MR432"
"9@MR443_613","V.Montic.Llo V.Montagnola","43.0737261164236","11.783791226234","9@MR443"
"9@MR444_613","V.Montic.Llo Pod.Casalone","43.0691918932599","11.7828066090907","9@MR444"
"9@MR445_613","Montepulciano-Loc. Villa Bianca","43.0756298811596","11.7867629120743","9@MR445"
"9@MR447_613","Montepulciano-Bv S.Polo Km 1,65","43.0635567172187","11.886004567323","9@MR447"
"9@MR448_613","Villa Bianca","43.0757090962714","11.7864497337135","9@MR448"
"9@MR449_613","V.Montic.Llo Pod.Casalone","43.0691182642986","11.7827278679853","9@MR449"
"9@MR450_613","V.Montic.Llo V.Montagnola","43.0737787394469","11.7837674485865","9@MR450"
"9@MR453_613","Bv. Spinella","43.1064940129056","11.786129735267","9@MR453"
"9@MR454_613","Bv. Corolle","43.1096886723053","11.7887894220531","9@MR454"
"9@MR455_613","Montepulciano-Le Caggiole","43.1158314350508","11.8003145846808","9@MR455"
"9@MR456_613","Montepulciano-Le Caggiole Sp 17","43.1160931893364","11.805247510494","9@MR456"
"9@MR457_613","Montepulciano-Le Caggiole Sp 17","43.1208355321593","11.8170814835526","9@MR457"
"9@MR458_613","Gracciano-Via Lazio Nc 98","43.1291865966474","11.8267588121073","9@MR458"
"9@MR459_613","Abbadia Di Mp-V. Lauretana Ovest","43.1512623070213","11.836303853555","9@MR459"
"9@MR460_613","Abbadia Di Mp-V. Lauretana Ovest","43.1513232375965","11.8392903721468","9@MR460"
"9@MR461_613","Abbadia Di Mp-V. Lauret. Ovest,","43.14798576196","11.845144526241","9@MR461"
"9@MR462_613","Montepulciano Sc-V.Lauret.Ovest","43.1458041043213","11.8513959907248","9@MR462"
"9@MR463_613","Montepulciano Sc-V.Lauret.Ovest","43.1423385719353","11.8560441394731","9@MR463"
"9@MR464_613","Montepulciano Sc-V.Lauret.Ovest","43.1411926322528","11.8579427102131","9@MR464"
"9@MR465_613","Gracciano-Scaccini","43.1368586862794","11.8494047535919","9@MR465"
"9@MR466_613","Montepulciano Sc-Via Firenze, 83","43.1371517913389","11.8544392707499","9@MR466"
"9@MR467_613","Acquaviva-V. Del Buonviaggio,16","43.1199256020883","11.8596509634371","9@MR467"
"9@MR468_613","Acquaviva-Ss 326","43.1168205540192","11.8553416089757","9@MR468"
"9@MR469_613","Acquaviva-Loc Casalte,23","43.1175639169828","11.8482812000096","9@MR469"
"9@MR470_613","Acquaviva-Ss 326 Al Km 40,3","43.1199404856248","11.8423318073577","9@MR470"
"9@MR471_613","Nottola-Bv Montepulciano Scalo","43.1227104701241","11.8293951325549","9@MR471"
"9@MR472_613","Nottola-Bv Montepulciano Scalo","43.1225694438474","11.8287264553859","9@MR472"
"9@MR473_613","Acquaviva-Ss 326 Al Km 40,2","43.119836965039","11.842873983375","9@MR473"
"9@MR474_613","Acquaviva-Loc Casalte,13","43.117480727045","11.8487290334553","9@MR474"
"9@MR475_613","Acquaviva-Via Senese","43.1166846919199","11.8559144320634","9@MR475"
"9@MR476_613","Bv. Chianacce","43.1449480101636","11.8960218046211","9@MR476"
"9@MR477_613","Acquaviva-Via Dei Mori Km. 0,0","43.1420874507537","11.8882615928305","9@MR477"
"9@MR478_613","Acquaviva-Via Dei Mori,75","43.1286079866783","11.8789954354816","9@MR478"
"9@MR479_613","Acquaviva-Via Dei Mori,19","43.1212163214836","11.8685799988126","9@MR479"
"9@MR480_613","Acquaviva-Via F.Lli Braschi, 188","43.1131485253319","11.8660721108018","9@MR480"
"9@MR481_613","Acquaviva-Via Luteraia,1","43.1119664311153","11.875676766915","9@MR481"
"9@MR482_613","Montepulciano-Loc.Salcheto, 86","43.1090606378065","11.8830846582051","9@MR482"
"9@MR483_613","Montepulciano-Loc.Salcheto, 92","43.1055590225581","11.8850092523528","9@MR483"
"9@MR484_613","Montepulciano-Loc.Tre Berte,100","43.0992568064435","11.8892624882323","9@MR484"
"9@MR485_613","Montepulciano-Loc.Tre Berte (Ristorante)","43.0949299090845","11.891594576203","9@MR485"
"9@MR486_613","Montepulciano-Tre Berte Al Km 47,8","43.0791888077184","11.8955841905219","9@MR486"
"9@MR487_613","Montepulciano-Tre Berte Al Km 47,75","43.0796346015611","11.8955806334154","9@MR487"
"9@MR488_613","Montepulciano-Loc.Tre Berte","43.0954656768333","11.8915936349913","9@MR488"
"9@MR489_613","Montepulciano-Bv Cervognano","43.0994024437833","11.8892002866951","9@MR489"
"9@MR490_613","Montepulciano-Loc.Salcheto, 77","43.1058274256578","11.8848989806022","9@MR490"
"9@MR491_613","Montepulciano-Loc.Salcheto, 55","43.1095420099982","11.8829198568563","9@MR491"
"9@MR492_613","Acquaviva-Via Luteraia,9","43.1119497928321","11.8752642758598","9@MR492"
"9@MR493_613","Acquaviva-Via F.Lli Braschi, 149","43.113205787205","11.8663021529","9@MR493"
"9@MR605_613","Abbadia Di Mp-Via Della Resistenza","43.1484427797963","11.8274484786127","9@MR605"
"9@MR606_613","Abbadia Di Mp-Via Della Resistenza","43.1495813755279","11.8305584030816","9@MR606"
"9@MR607_613","Sant'Albino Terme","43.0731973037192","11.8019080051266","9@MR607"
"9@MR613_613","Ospedale Di Nottola","43.1183585004441","11.82474846011","9@MR613"
"9@MR701_613","Abbadia Di Mp-S.Maria, 56","43.1431432563342","11.8132386444742","9@MR701"
"9@MR702_613","Abbadia Di Mp-Loc. Botteghino,40","43.1434105930307","11.8115216900189","9@MR702"
"9@MR703_613","Abbadia Di Mp-Loc. Botteghino,50","43.1457812344265","11.8073865682527","9@MR703"
"9@MR704_613","Abbadia Di Mp-Loc. Poggio Saragio","43.1541229778428","11.7936239026736","9@MR704"
"9@MR796_613","Abbadia Di Mp-Loc. Poggio Saragio","43.1538848963485","11.793602350037","9@MR796"
"9@MR797_613","Abbadia Di Mp-Loc. Botteghino,44","43.1458563467009","11.8065276371476","9@MR797"
"9@MR798_613","Abbadia Di Mp-Loc. Botteghino,15","43.1432741761546","11.8117598828279","9@MR798"
"9@MR799_613","Abbadia Di Mp-N.C. 35","43.1430252434217","11.8136435524406","9@MR799"
"9@MR860_613","Via Calamandrei,21","43.0985880493948","11.7854038339003","9@MR860"
"9@MR867_613","Stadio","43.0967037354407","11.7912086989316","9@MR867"
"9@MR868_613","Via Martiena","43.0992898036594","11.7922315855927","9@MR868"
"9@MR869_613","Montepulciano Autostazione","43.0964130722488","11.7873816522982","9@MR869"
"9@MR870_613","Croce Di Febo","43.0546627263379","11.7822328036721","9@MR870"
"9@MR871_613","Villa Pianoia","43.053682976394","11.7765572871897","9@MR871"
"9@MR876_613","Villa Pianoia","43.0536747065775","11.7766420023852","9@MR876"
"9@MR877_613","Croce Di Febo","43.0546776284901","11.7823789779412","9@MR877"
"9@MR975_613","Montepulciano-Via Calamandrei","43.0984040417727","11.7852914138961","9@MR975"
"9@OC152_613","Bv. Vivo","42.9484387163137","11.6415899812076","9@OC152"
"9@OC507_613","Bagni S.Filippo-Bv. Campiglia","42.9266000401097","11.700215833395","9@OC507"
"9@OC508_613","Bagni S.Filippo","42.9310866774816","11.6993720944143","9@OC508"
"9@OC509_613","Bisarca-Bivio Bagni San Filippo","42.9395523923838","11.7117808052246","9@OC509"
"9@OC513_613","Bagni S.Filippo-Bv. Campiglia","42.9265833485456","11.7005224093944","9@OC513"
"9@OC515_613","Bagni S.Filippo","42.9311852830722","11.6998266026468","9@OC515"
"9@OC519_613","Gallina Centro","43.0005510132224","11.6830455410388","9@OC519"
"9@OC520_613","Bv. Poderina","43.0261065349885","11.6274461254056","9@OC520"
"9@OC521_613","Bv. Poderina","43.0260104951718","11.6275386140996","9@OC521"
"9@OC522_613","Castiglione D'Orcia Carabinieri","43.0074742673373","11.6169145045064","9@OC522"
"9@OC523_613","Castiglione D'Orcia Proloco","43.0035991977323","11.6162028529906","9@OC523"
"9@OC524_613","Castiglione D'Orcia - Mondo Nuovo","42.9994374846424","11.6097892136225","9@OC524"
"9@OC525_613","Vivo D'Orcia Centro","42.933194981155","11.6406428715651","9@OC525"
"9@OC526_613","Vivo D'Orcia Centro","42.9331061653873","11.6405116291759","9@OC526"
"9@OC527_613","Agriturismo I Lecci","42.9568663270559","11.6301253498131","9@OC527"
"9@OC528_613","Bv. Vivo","42.9489802739495","11.6412589307997","9@OC528"
"9@OC529_613","Bv. Vivo","42.9494065720749","11.6411039205821","9@OC529"
"9@OC530_613","Belvedere - Capanne","42.9484606614214","11.6522632110165","9@OC530"
"9@OC531_613","Bv. Madonna Della Querce","42.9776246274311","11.5995024625019","9@OC531"
"9@OC532_613","Bv. Vivo","42.9485115489983","11.6416508475978","9@OC532"
"9@OC533_613","Campiglia Centro","42.9478765965297","11.6663559246363","9@OC533"
"9@OC535_613","Madonna Della Querce","42.9712005986783","11.6040797341244","9@OC535"
"9@OC536_613","Madonna Della Querce","42.9711095139728","11.6040305196969","9@OC536"
"9@OC537_613","Bv. Madonna Della Querce","42.9777418196306","11.5996470808997","9@OC537"
"9@OC538_613","Belvedere - Capanne","42.9484973481234","11.6520828873629","9@OC538"
"9@OC539_613","Agriturismo I Lecci","42.9570599164223","11.6300237584613","9@OC539"
"9@OC540_613","Controcurva","43.0208909444356","11.6238971579541","9@OC540"
"9@OC541_613","Controcurva","43.0211790949693","11.6240457776938","9@OC541"
"9@OC542_613","Poderino","43.0187401342696","11.6212323179557","9@OC542"
"9@OC543_613","Poderino","43.018502704626","11.621196319028","9@OC543"
"9@OC544_613","Frantoio","43.0120871449679","11.6174557578178","9@OC544"
"9@OC545_613","Frantoio","43.0122547996156","11.6176252160489","9@OC545"
"9@OC546_613","Castiglione D'Orcia Casetta","43.0079455154958","11.6218781787681","9@OC546"
"9@OC547_613","Castiglione D'Orcia Casetta","43.0077910360068","11.621625237874","9@OC547"
"9@OC548_613","Castiglione D'Orcia Carabinieri","43.007274207195","11.6169452674635","9@OC548"
"9@OC550_613","Castiglione D'Orcia Variante","43.0050093032746","11.6170886695367","9@OC550"
"9@OC551_613","Castiglione D'Orcia Variante","43.0049508535538","11.6169761372311","9@OC551"
"9@OC553_613","Castiglione D'Orcia Proloco","43.003881343216","11.6163804577116","9@OC553"
"9@OC554_613","Castiglione D'Orcia Cimitero Per Castigl","43.0024195709003","11.6140917249488","9@OC554"
"9@OC555_613","Castiglione D'Orcia Cimitero Per Amiata","43.0023336875709","11.6138466440899","9@OC555"
"9@OC557_613","Castiglione D'Orcia - Mondo Nuovo","42.9995423261608","11.6094578888661","9@OC557"
"9@OC558_613","Castiglione D'Orcia - Zona Artig.","42.9961436566136","11.6056253184262","9@OC558"
"9@OC559_613","Castiglione D'Orcia - Zona Artig.","42.9959914662069","11.6054956017921","9@OC559"
"9@OC570_613","Osteria Ansedonia","42.9699466644825","11.573770400829","9@OC570"
"9@OC571_613","Osteria Ansedonia","42.9699178754513","11.5739093511514","9@OC571"
"9@OC572_613","Gallina Dir.Sud","42.9974826304084","11.6834758435723","9@OC572"
"9@OC573_613","Stazione Amiata","42.975723405891","11.5474729773555","9@OC573"
"9@OC574_613","Stazione Amiata","42.9758190722238","11.5475237731027","9@OC574"
"9@OC575_613","Agriturismo Grossola","42.9746296619407","11.5586192089234","9@OC575"
"9@OC576_613","Agriturismo Grossola","42.974475158383","11.5589849707022","9@OC576"
"9@OC577_613","Agriturismo Aiole","42.9720837284255","11.5693223272528","9@OC577"
"9@OC578_613","Agriturismo Aiole","42.9719328177574","11.5696989874993","9@OC578"
"9@OC579_613","Gallina Dir.Nord","42.9982226654958","11.6836718933989","9@OC579"
"9@OC582_613","Gallina Centro","43.0003575142254","11.6830146655938","9@OC582"
"9@OC583_613","Consorzio Agrario","43.0195333570816","11.6511594999434","9@OC583"
"9@OC584_613","Consorzio Agrario","43.0194418734946","11.6511594881365","9@OC584"
"9@OC585_613","Bv. Poderina","43.0273465013414","11.6276507422171","9@OC585"
"9@OC626_613","Casottino Provincia","42.9211413780014","11.6955925536958","9@OC626"
"9@OC627_613","Casottino Provincia","42.9212180863494","11.6955547335791","9@OC627"
"9@OC642_613","Bv. Traversa Amiata","42.9807039238111","11.7071095096988","9@OC642"
"9@OC643_613","Bv. Traversa Amiata","42.9808488327985","11.7072794709193","9@OC643"
"9@PF002_613","Podere Santa Maria","42.7995356829382","11.7524190366789","9@PF002"
"9@PF003_613","Podere Santa Maria","42.7995628709813","11.7524773765831","9@PF003"
"9@PF628_613","Piancastagnaio Bv Centrale","42.8471873455943","11.6951200297673","9@PF628"
"9@PF629_613","Piancastagnaio Bv Centrale","42.8471686585188","11.6952634942283","9@PF629"
"9@PF630_613","Pelletteria Giglioni","42.8450552451643","11.6921792730799","9@PF630"
"9@PF631_613","Pelletteria Giglioni","42.845378965955","11.691543559631","9@PF631"
"9@PF632_613","Mondoconvenienza","42.8254319748365","11.7244126365382","9@PF632"
"9@PF633_613","Mondoconvenienza","42.8250793292198","11.72507557539","9@PF633"
"9@PF634_613","Casa Del Corto Chiesa","42.8209067815288","11.7313686972089","9@PF634"
"9@PF635_613","Casa Del Corto Chiesa","42.8207322170527","11.7317482733283","9@PF635"
"9@PF636_613","Floramiata - Sbarra","42.8183124398702","11.7331695161088","9@PF636"
"9@PF637_613","Floramiata 1","42.8174669945971","11.7277701427371","9@PF637"
"9@PF638_613","Floramiata 2","42.813935383128","11.7325433757987","9@PF638"
"9@PF639_613","Bv. Sforzesca","42.8204831967693","11.763168166304","9@PF639"
"9@PF656_613","Ponte Di Valle Gelata","42.8405548874652","11.6357743047815","9@PF656"
"9@PF657_613","Ponte Di Valle Gelata","42.8403595069812","11.6364223316503","9@PF657"
"9@PF658_613","Saragiolo Zona Industriale","42.8389991997747","11.6392303041464","9@PF658"
"9@PF659_613","Saragiolo Zona Industriale","42.8388704767832","11.6392245772839","9@PF659"
"9@PF660_613","Saragiolo La Valle","42.8367470841151","11.6400884996065","9@PF660"
"9@PF661_613","Saragiolo La Valle","42.836682621117","11.6400139326724","9@PF661"
"9@PF662_613","Saragiolo Centro","42.8349517697507","11.6432822892097","9@PF662"
"9@PF663_613","Saragiolo Centro","42.8348515605572","11.6432506093501","9@PF663"
"9@PF664_613","Saragiolo Pinzuti","42.8332051880435","11.6474173447197","9@PF664"
"9@PF665_613","Saragiolo Pinzuti","42.8331412203071","11.6474772533157","9@PF665"
"9@PF666_613","Pietralunga","42.8335823839653","11.6488493684617","9@PF666"
"9@PF667_613","Pietralunga","42.8338899937092","11.6492843664145","9@PF667"
"9@PF668_613","Capannucce","42.8355288142781","11.6551468356081","9@PF668"
"9@PF669_613","Capannucce","42.8355776908963","11.6552601457637","9@PF669"
"9@PF670_613","Tre Case","42.8393608173021","11.6558206373487","9@PF670"
"9@PF671_613","Tre Case","42.8391193379428","11.655815794276","9@PF671"
"9@PF672_613","Piancastagnaio Casa Eufemia","42.8496987396036","11.6725230703288","9@PF672"
"9@PF673_613","Piancastagnaio Casa Eufemia","42.8496195152283","11.6724260333794","9@PF673"
"9@PF674_613","Piancastagnaio Bv. Quaranta","42.8502908308386","11.6763041837622","9@PF674"
"9@PF675_613","Piancastagnaio Bv. Quaranta","42.8501381242227","11.6759726705285","9@PF675"
"9@PF676_613","Piancastagnaio Via Grossetana","42.8508659475767","11.6802625752975","9@PF676"
"9@PF677_613","Piancastagnaio Via Grossetana","42.8507785131431","11.6803740739534","9@PF677"
"9@PF678_613","Piancastagnaio Caprilolo","42.8512638871015","11.6798807100836","9@PF678"
"9@PF679_613","Piancastagnaio Panade","42.8517842570285","11.6743813485813","9@PF679"
"9@PF680_613","Piancastagnaio Madonna S.Pietro","42.8510702993765","11.6833419453964","9@PF680"
"9@PF681_613","Piancastagnaio Madonna S.Pietro","42.8509786888161","11.6833894989533","9@PF681"
"9@PF682_613","Piancastagnaio Parco","42.8514363546724","11.6871125818738","9@PF682"
"9@PF683_613","Piancastagnaio Parco","42.8513338789196","11.6869747410075","9@PF683"
"9@PF684_613","Piancastagnaio Vecchio Cimitero","42.8512180175425","11.6895605162286","9@PF684"
"9@PF685_613","Piancastagnaio Vecchio Cimitero","42.8510461378896","11.6897092105307","9@PF685"
"9@PF686_613","Piancastagnaio Centro","42.8496979840819","11.6922743283489","9@PF686"
"9@PF687_613","Piancastagnaio Furzi","42.8525932720457","11.6865404521335","9@PF687"
"9@PF688_613","Piancastagnaio Furzi","42.8524736684529","11.686556803905","9@PF688"
"9@PF689_613","Bv. Sforzesca","42.8204085167575","11.7629979948603","9@PF689"
"9@PF721_613","Quaranta Albergo","42.8481742579986","11.6556700296486","9@PF721"
"9@PF722_613","Quaranta Albergo","42.8482577446866","11.6557159504025","9@PF722"
"9@PG339_613","Olmio","43.0541363677992","11.6969065835118","9@PG339"
"9@PG346_613","S.Giuseppe","43.0769663419763","11.6731915448068","9@PG346"
"9@PG347_613","Casa Rossa","43.0721808044906","11.680222203614","9@PG347"
"9@PG348_613","Prugnano","43.0647826276683","11.6812141667101","9@PG348"
"9@PG349_613","Ponte Dresa","43.0435363042237","11.6860092213641","9@PG349"
"9@PG350_613","Olmio","43.0540627435754","11.6969549244075","9@PG350"
"9@PG356_613","Rondino","43.0833161505585","11.6764664003882","9@PG356"
"9@PG374_613","Str.Pienza Borghetto","43.1018509394801","11.7242014298707","9@PG374"
"9@PG376_613","St.Pienza P.Zo Massaini","43.1037800715284","11.7032245209771","9@PG376"
"9@PG377_613","St.Pienza La Croce","43.0978956732542","11.6942884932907","9@PG377"
"9@PG378_613","St.Pienza Casa Al Prato","43.0927967337408","11.688421514209","9@PG378"
"9@PG379_613","St.Pienza Le Fornaci","43.0879568976791","11.68174066412","9@PG379"
"9@PG380_613","Pienza Calzaturificio","43.0855326702785","11.6779262006782","9@PG380"
"9@PG435_613","Le Fontanelle","43.0599340261563","11.7090576528879","9@PG435"
"9@PG437_613","V.Montic.Llo Montelaro Pi","43.0619718357779","11.7364745065985","9@PG437"
"9@PG440_613","Montelaro","43.0619522531412","11.7363901261221","9@PG440"
"9@PG442_613","V.Montic.Llo Pianoina","43.0504958230959","11.7645760247748","9@PG442"
"9@PG446_613","Le Fontanelle","43.0599774465503","11.709020066516","9@PG446"
"9@PG447_613","V.Montic.Llo Pianoina","43.0505623148093","11.7645855205654","9@PG447"
"9@PG637_613","Loc. Pian Di Biliardo Km. 6,400","43.0109997950939","11.7625671317897","9@PG637"
"9@PG661_613","Monticchiello","43.0645454495118","11.7225946943851","9@PG661"
"9@PG662_613","Monticchiello","43.0643582992896","11.7225964763744","9@PG662"
"9@PG865_613","Pienza","43.0788469381903","11.6775149343458","9@PG865"
"9@PGV01_613","Svincolo Sp40 Sp53 Direzione Chianciano","43.0068366696729","11.7430457054447","9@PGV01"
"9@PGV02_613","Svincolo Sp40 Sp53 Direzione Monteamiata","43.007723222203","11.7430482041551","9@PGV02"
"9@QS216_613","Via Matteotti","43.0575583616735","11.6059319424763","9@QS216"
"9@QS387_613","S.Quirico Via Dei Fossi","43.0587990115151","11.6064797378024","9@QS387"
"9@QS519_613","Bagno Vignoni Centro","43.0284337861544","11.6192573805415","9@QS519"
"9@QS587_613","Bagno Vignoni Bivio","43.0288637353396","11.625843069416","9@QS587"
"9@QS590_613","San Quirico D'Orcia - Didtr. Ip","43.054552882224","11.6089859768935","9@QS590"
"9@QS591_613","San Quirico D'Orcia - Didtr. Ip","43.0549553167007","11.609221362965","9@QS591"
"9@QS802_613","Scuole","43.0570125827334","11.6075706656821","9@QS802"
"9@QS803_613","S.Quirico V.S.Di Pietro","43.0587945881653","11.6012200312062","9@QS803"
"9@QS804_613","S.Quirico V.S.Di Pietro","43.0570649468234","11.6025782233589","9@QS804"
"9@QS805_613","S.Quirico V.S.Di Pietro","43.0572379800665","11.6020963667574","9@QS805"
"9@QS806_613","Via Matteotti","43.057504481466","11.606087569506","9@QS806"
"9@QS807_613","S.Quirico V.Dei Fossi","43.0590467396799","11.6063640129866","9@QS807"
"9@QS842_613","San Quirico D'Orcia Opp. Rist. Garibaldi","43.0592130984702","11.6086642634629","9@QS842"
"9@QS866_613","S Quirico","43.058671884281","11.6013772974779","9@QS866"
"9@QS992_613","San Quirico D'Orcia Ristorante Garibaldi","43.0596071189522","11.6082212309375","9@QS992"
"9@RA392_613","Radicofani-Loc. Calcinaio","42.9177254361146","11.8282788534143","9@RA392"
"9@RA393_613","Bv. Celle Sul Rigo","42.8998933553427","11.7993165207072","9@RA393"
"9@RA394_613","Matteotti","42.8948349789897","11.7748375941198","9@RA394"
"9@RA395_613","Radicofani - Luchini 14","42.8960344200319","11.7711205942533","9@RA395"
"9@RA417_613","Via Luchini, 8","42.8973887894469","11.7649386603035","9@RA417"
"9@RA418_613","Radicofani - Luchini 1","42.8959404312553","11.7711347529317","9@RA418"
"9@RA419_613","Radicofani-La Mossa","42.8947059279455","11.7747752243996","9@RA419"
"9@RA420_613","Bv. Celle Sul Rigo","42.8996330342407","11.7990995882061","9@RA420"
"9@RA421_613","Radicofani-Loc. Calcinaio","42.917603224122","11.8281231833283","9@RA421"
"9@SC086_613","Sarteano-Campagna S.P. 21 Km. 3,95","42.9822318763712","11.8856085536826","9@SC086"
"9@SC090_613","Sarteano-Traversa Del Saracino","42.9876706423897","11.8692460297888","9@SC090"
"9@SC091_613","Sarteano - V.Del Turismo","42.9891186422691","11.8659227451458","9@SC091"
"9@SC106_613","Sarteano-Di Fronte Ang. V. Valverde","42.991030683747","11.8803629279689","9@SC106"
"9@SC107_613","Sarteano-Campagna S.P. 21 Km. 3,9","42.9821188130445","11.8858072107212","9@SC107"
"9@SC110_613","Sarteano-Loc.Astrone Ss 478","43.0066683864816","11.9032561944851","9@SC110"
"9@SC200_613","Sarteano-Viale Umbria","42.9895965083123","11.8750467331252","9@SC200"
"9@SC201_613","Sarteano-Viale Umbria","42.9896946001303","11.8761035365177","9@SC201"
"9@SC243_613","Sarteano-Loc. Miralaghi","42.9973111729924","11.8611704218693","9@SC243"
"9@SC244_613","Sarteano-V.Le Europa (Onpi)","42.995157225206","11.8625071921793","9@SC244"
"9@SC245_613","Sarteano-V.Le Europa Angolo V. Po","42.9933361781448","11.8636737555573","9@SC245"
"9@SC246_613","Sarteano-Bar I Diavoli","42.9904746456247","11.8646799034201","9@SC246"
"9@SC248_613","Sarteano-P.Za Liberta'","42.9890925945462","11.8723390842546","9@SC248"
"9@SC249_613","Sarteano-Angolo Via Trento","42.9877122111605","11.8746533806745","9@SC249"
"9@SC250_613","Sarteano-Campagna S.P. 21","42.9812465550257","11.8787944385016","9@SC250"
"9@SC282_613","Sarteano-Campagna S.P. 21","42.9815028622575","11.8795222448807","9@SC282"
"9@SC283_613","Sarteano-Angolo Via Trieste","42.9865563456888","11.8762080546679","9@SC283"
"9@SC284_613","Sarteano-Angolo Via Valverde","42.9911360711782","11.8807549261368","9@SC284"
"9@SC285_613","Sarteano-Podere Fonte Pico","42.9943478657541","11.8875389913893","9@SC285"
"9@SC286_613","Sarteano-P.Gentile Ss 478","43.0009225752381","11.8924628271765","9@SC286"
"9@SC287_613","Sarteano-Palazzo Di Pirro","43.0043611789287","11.894281977399","9@SC287"
"9@SC288_613","Sarteano-Loc.Astrone","43.0065535618418","11.9028136456827","9@SC288"
"9@SC289_613","Sarteano-Palazzo Di Pirro","43.0039316190203","11.8936438428019","9@SC289"
"9@SC290_613","Sarteano-P.Gentile Ss 478","43.0007105124256","11.8919115009244","9@SC290"
"9@SC291_613","Sarteano-Podere Fonte Pico Ss 478","42.9945174030162","11.8877784023402","9@SC291"
"9@SC292_613","Sarteano-P.Za Liberta'","42.9893084250606","11.872929183842","9@SC292"
"9@SC293_613","Sarteano-Bar I Diavoli","42.9908286140218","11.8643882419984","9@SC293"
"9@SC294_613","Sarteano-V.Le Europa Ang V. Adige","42.9937202034196","11.8635121452015","9@SC294"
"9@SC295_613","Sarteano-V.Le Europa (Onpi)","42.9953543982962","11.8625439510547","9@SC295"
"9@SC296_613","Sarteano-Loc. Miralaghi","42.9972037961768","11.8613234343262","9@SC296"
"9@SC297_613","Sarteano Miralaghi-Frantoio Tistarelli","42.9986189924189","11.8601823020737","9@SC297"
"9@SC389_613","Sarteano-Campagna Ss. 478 Km. 10,35","42.9567689924796","11.8530807344032","9@SC389"
"9@SC390_613","Sarteano-Loc. Spineta Ss 478 Vs Radicof.","42.9485451127497","11.8517552942737","9@SC390"
"9@SC391_613","Sarteano-Bv Fontevetriana (Km. 13,2)","42.9397495225776","11.8486191024016","9@SC391"
"9@SC422_613","Sarteano-Bv Fontevetriana","42.939838434553","11.8490260439157","9@SC422"
"9@SC423_613","Sarteano-Loc. Spineta Ss 478 Vs Sarteano","42.9483418334402","11.8517826742395","9@SC423"
"9@SC424_613","Sarteano-Campagna Ss. 478 Km. 10,3","42.957281119179","11.8529450464251","9@SC424"
"9@SC429_613","Bv. Palazzo Tosoni","42.9752162896715","11.869375707409","9@SC429"
"9@SC615_613","Sarteano-Ss 478 Km 9","42.9710682467136","11.8600922312342","9@SC615"
"9@SC616_613","Sarteano-Ss 478 Km 8.9","42.9706346380108","11.8610483966423","9@SC616"
"9@SC621_613","Sarteano-Piazza Bargagli","42.9893919440013","11.869400817588","9@SC621"
"9@SL077_613","Podere La Lama","42.9117457765999","11.5614150191509","9@SL077"
"9@SL078_613","Podere La Lama","42.9119240932921","11.5617113903996","9@SL078"
"9@SL079_613","Bv. Pescina","42.9227884360716","11.5642005512108","9@SL079"
"9@SL080_613","Bv. Pescina","42.9225983411989","11.5643737518958","9@SL080"
"9@SL081_613","Seggiano Cimitero","42.926788108084","11.5647119646167","9@SL081"
"9@SL082_613","Seggiano Cimitero","42.9265501652216","11.5649469040836","9@SL082"
"9@SL084_613","Seggiano La Fonte","42.928544000761","11.5608347594734","9@SL084"
"9@SL085_613","Seggiano Comune","42.9284034833578","11.5589107144066","9@SL085"
"9@SL086_613","Seggiano Comune","42.9284591713902","11.5586995653064","9@SL086"
"9@SL087_613","Seggiano C.Le","42.9286015715855","11.5567777348981","9@SL087"
"9@SL088_613","Potentino","42.9330431423938","11.5551751385866","9@SL088"
"9@SL089_613","Potentino","42.9322826085655","11.5551694963733","9@SL089"
"9@SL090_613","Poggio Ferro Di Seggiano","42.9393646354769","11.5492602814824","9@SL090"
"9@SL091_613","Poggio Di Seggiano","42.9515310051793","11.5658449315545","9@SL091"
"9@SL092_613","Poggio Di Seggiano","42.9515782133939","11.5662091200486","9@SL092"
"9@SL095_613","Case Capraia","42.9109414678016","11.5844267575091","9@SL095"
"9@SL096_613","Case Capraia","42.9108847981183","11.5841650561478","9@SL096"
"9@SL097_613","Pescina Bv. Montagna","42.9148720473073","11.5849634078067","9@SL097"
"9@SL098_613","Pescina Bv. Montagna","42.9150322620522","11.5848626689981","9@SL098"
"9@SL099_613","Pescina Hotel","42.9170340898464","11.5860999664258","9@SL099"
"9@SL100_613","Pescina Hotel","42.9168203390484","11.5859957081043","9@SL100"
"9@SL101_613","Pescina","42.9191828997681","11.5877175431689","9@SL101"
"9@SL102_613","Pescina","42.9192595983068","11.5876308278294","9@SL102"
"9@SL103_613","Pizzeria Luca","42.9214610121111","11.589091447112","9@SL103"
"9@SL104_613","Pizzeria Luca","42.9214073035131","11.5890137240105","9@SL104"
"9@SL105_613","Case Del Beppacciolo","42.9270044809532","11.594800429668","9@SL105"
"9@SL106_613","Case Del Beppacciolo","42.9269783101259","11.5946957912118","9@SL106"
"9@SL107_613","Trefonti","42.9302249350915","11.5974267790189","9@SL107"
"9@SL108_613","Trefonti","42.9303320953024","11.597386803477","9@SL108"
"9@SL109_613","Altori","42.9275156077284","11.6202758509912","9@SL109"
"9@SL110_613","Altori","42.9280222771088","11.6204925372337","9@SL110"
"9@ST009_613","Sinalunga Paese","43.2126837720344","11.7350402878962","9@ST009"
"9@ST010_613","Bettolle Piazza Del Popolo","43.2085205975961","11.8019968061441","9@ST010"
"9@ST023_613","Via Voltella","43.2119833318853","11.7609606472217","9@ST023"
"9@ST074_613","Via Gramsci (Ex Inam)","43.2140877038164","11.7412721269706","9@ST074"
"9@ST075_613","Via Gramsci, N.C. 39","43.2143132258582","11.7418177458535","9@ST075"
"9@ST076_613","Via Matteotti, N.C. 34","43.2110296408933","11.7381283658724","9@ST076"
"9@ST077_613","Via Matteotti, N.C. 32","43.2110697147145","11.7383348738976","9@ST077"
"9@ST085_613","Via Piave N.C. 12","43.216889811247","11.7471962626573","9@ST085"
"9@ST086_613","Via Piave N.C. 70","43.219015108293","11.7507389732415","9@ST086"
"9@ST087_613","Via Piave N.C. 112","43.2206571909037","11.7541524371763","9@ST087"
"9@ST088_613","Via Piave N.C. 81","43.2205934941941","11.7538064371648","9@ST088"
"9@ST089_613","Via Piave N.C. 43","43.2190032953688","11.750481500529","9@ST089"
"9@ST090_613","Via Piave N.C. 11","43.2165813637344","11.7469177184304","9@ST090"
"9@ST121_613","Sinalunga Bivio Lucignano","43.2226517159075","11.7426868699903","9@ST121"
"9@ST189_613","Rigomagno Stazione","43.2569588341501","11.7067604309522","9@ST189"
"9@ST208_613","Rigomagno","43.2571031684255","11.7065588800603","9@ST208"
"9@ST322_613","Sinalunga Op.B.Lucignano","43.2227692298363","11.7427464389468","9@ST322"
"9@ST503_613","Scrofiano","43.2311157891576","11.7150718320394","9@ST503"
"9@ST718_613","Bv. Petriolo (Fratta)","43.1886440565362","11.7595403244893","9@ST718"
"9@ST719_613","Bv. Amorosa","43.1944344929894","11.7479140176358","9@ST719"
"9@ST720_613","Bv. Rigaiolo, 241","43.2011181792185","11.7434347732966","9@ST720"
"9@ST721_613","Sinalunga-Loc. Capacciola N.C. 186","43.207868546787","11.7443523562973","9@ST721"
"9@ST722_613","Sinalunga-Via Trieste Incr. Via S.Elena","43.2128497315732","11.7440834548499","9@ST722"
"9@ST727_613","Sinalunga-Via Trento N.C. 85","43.2149081690043","11.7468530245788","9@ST727"
"9@ST728_613","Sinalunga-Via Trento N.C. 59","43.2147959713414","11.7498345526453","9@ST728"
"9@ST729_613","Sinalunga-Via Trento N.C. 2","43.2142814159674","11.7543777716561","9@ST729"
"9@ST730_613","Sinalunga-Via Trento Incr. V. Voltella","43.2134670536355","11.7586512089124","9@ST730"
"9@ST731_613","Sinalunga-Via Puso N.C. 96","43.2127679008446","11.764484028388","9@ST731"
"9@ST732_613","Sinalunga-Via Puso N.C. 54 Fornace","43.2121571308995","11.7677709210552","9@ST732"
"9@ST733_613","Guazzino-Via Boito N.C. 33","43.2098907981854","11.7773129833052","9@ST733"
"9@ST734_613","Guazzino-Via Boito Incr. Fornaci Tempora","43.2113112869923","11.7796240518925","9@ST734"
"9@ST735_613","Guazzino-V. Trasimeno, 15 Scuole","43.2113846454592","11.7858577007958","9@ST735"
"9@ST736_613","Guazzino-Via Gramsci Nc 38","43.2104501699519","11.7882524696415","9@ST736"
"9@ST737_613","Guazzino-Via Gramsci Nc 17","43.2093654485279","11.7905664533119","9@ST737"
"9@ST738_613","Bettolle-Via Siena Cimitero","43.2079822445868","11.7952177959342","9@ST738"
"9@ST739_613","Bettolle-Via Siena, 23","43.2069967116829","11.8003517976971","9@ST739"
"9@ST740_613","Bettolle-Via Siena N.C. 2 Stadio","43.2065506954216","11.8024774478121","9@ST740"
"9@ST742_613","Bettolle-V. Rimembranza, 4 Ingr. Stadio","43.2057598733321","11.8030209622054","9@ST742"
"9@ST743_613","Bettolle-V. Togliatti N.C. 50 (Casato)","43.2009854830145","11.8070028831601","9@ST743"
"9@ST744_613","Bettolle-V. Togliatti N.C. 72","43.1982031837316","11.8075552183722","9@ST744"
"9@ST745_613","Bettolle-Trav. Vald.Est La Foenna","43.1932624112439","11.8058056399277","9@ST745"
"9@ST763_613","Bettolle-Trav. Vald.Est La Foenna","43.1933072012025","11.8059984410581","9@ST763"
"9@ST764_613","Bettolle-V. Togliatti N.C. 51","43.1983260788809","11.8076839304276","9@ST764"
"9@ST765_613","Bettolle-Via Togliatti Ang. Via Serrati","43.20118410316","11.8069812261478","9@ST765"
"9@ST766_613","Bettolle-V. Togliatti, 5 Davanti Scuole","43.205925300943","11.8030310042759","9@ST766"
"9@ST767_613","Bettolle-Via Siena N.C. 2 Stadio","43.2066089888879","11.802266557705","9@ST767"
"9@ST768_613","Bettolle-Via Siena Incr V. Modena","43.2071021555734","11.8002720785664","9@ST768"
"9@ST769_613","Bettolle-Via Siena Cimitero","43.2081365699629","11.794851717931","9@ST769"
"9@ST770_613","Guazzino-Via Gramsci","43.2092293266589","11.7909787664398","9@ST770"
"9@ST771_613","Guazzino-Via Gramsci, 31","43.2106483011974","11.7879922866766","9@ST771"
"9@ST772_613","Guazzino-V. Trasimeno, 12 Scuole","43.2115697309553","11.7856523069773","9@ST772"
"9@ST773_613","Guazzino-Via Boito Incr. Fornaci Tempora","43.2111535306747","11.7792613719612","9@ST773"
"9@ST774_613","Guazzino-Via Boito N.C 78","43.2098100232338","11.777116915783","9@ST774"
"9@ST775_613","Sinalunga-Via Puso N.C. 86 Fornace","43.2126008844769","11.7667354028547","9@ST775"
"9@ST776_613","Sinalunga-Via Puso N.C. 80","43.2128197121186","11.7643893655586","9@ST776"
"9@ST777_613","Sinalunga-Via Trento, 155 Bar Ciombe","43.2136048882725","11.7583496658925","9@ST777"
"9@ST778_613","Sinalunga-Via Trento Dep.Sip","43.2143992158246","11.7541598864367","9@ST778"
"9@ST779_613","Sinalunga-Via Trento N.C. 155","43.2148580180273","11.7495010149021","9@ST779"
"9@ST780_613","Sinalunga-Via Trento N.C. 59","43.2149741960736","11.7465408363214","9@ST780"
"9@ST783_613","Sinalunga-V. Trieste, 236","43.2126855145158","11.743985237117","9@ST783"
"9@ST784_613","Sinalunga-Loc. Capacciola N.C. 200","43.2077166115394","11.7442038015852","9@ST784"
"9@ST785_613","Bv. Rigaiolo","43.2012106335592","11.7432028527828","9@ST785"
"9@ST786_613","Bv. Amorosa","43.1944729084722","11.7476171138038","9@ST786"
"9@ST787_613","Bv. Petriolo (Fratta)","43.1891921181101","11.7582798468516","9@ST787"
"9@ST796_613","Bv. Scrofiano","43.2372778641628","11.7262421843442","9@ST796"
"9@ST797_613","Bv. Farnetella","43.2481054062359","11.7175902324265","9@ST797"
"9@ST798_613","Rigomagno Bivio","43.2523312475867","11.7104631246638","9@ST798"
"9@ST813_613","Rigomagno Bivio","43.2523001346406","11.7105073257294","9@ST813"
"9@ST814_613","Bv. Farnetella","43.2479353780896","11.7176749251028","9@ST814"
"9@ST815_613","Bv. Scrofiano","43.2373635559905","11.7260970299095","9@ST815"
"9@ST816_613","Sinalunga F.S.","43.2160395837777","11.7443537621587","9@ST816"
"9@ST824_613","Fontecieca","43.2308696634878","11.7303504840499","9@ST824"
"9@ST825_613","Fontecieca Verso Siena","43.2320480315642","11.7298711538404","9@ST825"
"9@ST830_613","Rigaiolo-Loc. Le Moricce","43.2017944223519","11.741387497418","9@ST830"
"9@ST831_613","Rigaiolo","43.2006314052606","11.735999948904","9@ST831"
"9@ST833_613","Sinalunga V. Turati","43.2179688240953","11.7552637075419","9@ST833"
"9@ST834_613","V.Casalpiano","43.2152804502734","11.7570487603892","9@ST834"
"9@ST835_613","V.Casalpiano","43.2154460344812","11.7570596355669","9@ST835"
"9@ST912_613","Bv. Scrofiano","43.2353531183077","11.7273683783702","9@ST912"
"9@ST913_613","Scrofiano-Podere S. Pietro N.C. 37","43.235243044024","11.7222278374354","9@ST913"
"9@ST914_613","Scrofiano-La Casina N.C. 12","43.2331922957996","11.7175955571014","9@ST914"
"9@ST916_613","Farnetella-Loc. Palazzo N.C. 49","43.2478529275042","11.7169389899224","9@ST916"
"9@ST917_613","Farnetella N.C. 40","43.2462770213179","11.712397812919","9@ST917"
"9@ST918_613","Farnetella-(Madonnina)","43.2442643775408","11.7099405794815","9@ST918"
"9@ST919_613","Farnetella","43.2434738103901","11.7068249143883","9@ST919"
"9@ST920_613","Farnetella-Via Del Sole (Capolinea)","43.2434058784413","11.7026558595479","9@ST920"
"9@ST923_613","Rigomagno St. Km 0,85 Sp 11/A","43.25960694313","11.711470000655","9@ST923"
"9@ST924_613","Rigomagno-Via S. Martino","43.2624472913274","11.7130052155537","9@ST924"
"9@ST925_613","Rigomagno-V. S.Martino Casa Salvadori","43.2624018890123","11.7094149103757","9@ST925"
"9@ST926_613","Rigomagno-Via S. Martino","43.2627005151623","11.7085919798454","9@ST926"
"9@ST927_613","Rigomagno-V. S.Martino Loc.Boschetto,65","43.2635753891324","11.7058679130981","9@ST927"
"9@ST928_613","Rigomagno-V. S.Martino Loc. La Doccia","43.2655461579448","11.7009652836657","9@ST928"
"9@ST929_613","Rigomagno-V. S.Martino Loc. Cimitero","43.265095363827","11.69507753238","9@ST929"
"9@ST930_613","Rigomagno (Capolinea)","43.2626868670819","11.6958381958144","9@ST930"
"9@ST931_613","Sinalunga Via Trieste","43.2194646393134","11.7441618981401","9@ST931"
"9@ST932_613","Sinalunga Via Trieste","43.2195319846975","11.7443308813094","9@ST932"
"9@ST943_613","Rigomagno-V. S.Martino Loc. Cimitero","43.2652059104486","11.6951624983815","9@ST943"
"9@ST944_613","Rigomagno-V. S.Martino Loc. La Doccia","43.2654789438949","11.7011424418307","9@ST944"
"9@ST945_613","Rigomagno-V. S.Martino Loc.Boschetto,65","43.2635258655004","11.7060581648409","9@ST945"
"9@ST946_613","Rigomagno-Via S. Martino","43.2623919411228","11.7083148821005","9@ST946"
"9@ST947_613","Rigomagno-V. S.Martino Casa Salvadori","43.2623302350749","11.7095888962694","9@ST947"
"9@ST948_613","Rigomagno-Via S.Martino Incr. Lucignano","43.2623977180763","11.7131970573876","9@ST948"
"9@ST949_613","Rigomagno St. Km 0,80 Sp 11/A","43.2595839003847","11.7113026610199","9@ST949"
"9@ST952_613","Farnetella-Podere Caselle","43.2433755798877","11.7069806761845","9@ST952"
"9@ST953_613","Farnetella-Podere Vignoli","43.2443040999496","11.7101640411142","9@ST953"
"9@ST954_613","Farnetella-Nc 41","43.2462627714943","11.7126188869115","9@ST954"
"9@ST955_613","Farnetella-Loc. Palazzo N.C. 51","43.2479121591677","11.7172881120698","9@ST955"
"9@ST956_613","Scrofiano","43.2330600476138","11.7176666413325","9@ST956"
"9@ST957_613","Scrofiano-Podere S. Giovanni, 41","43.2351587980259","11.7223626260603","9@ST957"
"9@ST958_613","Bv. Scrofiano-Podere S.Giovannii","43.2346543876785","11.7267149489616","9@ST958"
"9@TC058_613","Castel Del Piano Campeggio","42.8847509529793","11.5366473092094","9@TC058"
"9@TC059_613","Castel Del Piano Campeggio","42.8846192111819","11.5365744393225","9@TC059"
"9@TC060_613","Castel Del Piano Hotel Impero","42.8872337705075","11.5357660495038","9@TC060"
"9@TC061_613","Castel Del Piano Hotel Impero","42.8871377317704","11.5356626813589","9@TC061"
"9@TC062_613","Castel Del Piano Centrale","42.891569065921","11.5362628431602","9@TC062"
"9@TC063_613","Castel Del Piano Ospedale","42.8903547203507","11.5353567468258","9@TC063"
"9@TC064_613","Castel Del Piano Santucci","42.8926032892453","11.5415642633464","9@TC064"
"9@TC065_613","Castel Del Piano Santucci","42.892858418104","11.5423653759269","9@TC065"
"9@TC066_613","Castel Del Piano Liceo","42.8921140221915","11.5421177766473","9@TC066"
"9@TC067_613","Castel Del Piano Cimitero","42.8942400833417","11.5465191793084","9@TC067"
"9@TC068_613","Castel Del Piano Cimitero","42.8942282376642","11.5467358256462","9@TC068"
"9@TC069_613","Castel Del Piano - Bv. Casella","42.8952225199623","11.5500183968195","9@TC069"
"9@TC070_613","Castel Del Piano Bivio Casella","42.8950151790739","11.5498512516943","9@TC070"
"9@TC071_613","Leccio","42.899174256706","11.5558934104712","9@TC071"
"9@TC072_613","Leccio","42.8992453552935","11.5561409353269","9@TC072"
"9@TC073_613","Pian Di Ballo","42.904906446242","11.5537156225998","9@TC073"
"9@TC074_613","Pian Di Ballo","42.9050626323878","11.5537013729623","9@TC074"
"9@TC075_613","Tepolini","42.9095507891164","11.5538165756377","9@TC075"
"9@TC076_613","Tepolini","42.9093292486642","11.5536726770278","9@TC076"
"9@TC093_613","Pian Di Ballo Bivio","42.9031003262769","11.5559815861684","9@TC093"
"9@TC094_613","Bv. Pian Di Ballo","42.9035825913464","11.5558211004714","9@TC094"
"9@TC181_613","Pescina Bivio Sud","42.9020362601054","11.5559011026914","9@TC181"
"9@TC182_613","Pescina Bivio Sud","42.9020675176233","11.5562915215968","9@TC182"
"9@TC505_613","Castel Del Piano Vittorio Veneto","42.889865769743","11.5364619784744","9@TC505"
"9@TC517_613","Castel Del Piano Santucci","42.8922056099667","11.5394451105378","9@TC517"
"9@TF019_613","Chianciano-Loc.Maglianella","43.0348706246688","11.8415539898595","9@TF019"
"9@TF020_613","Chianciano-Loc.La Pedata","43.0356888045998","11.8356170844033","9@TF020"
"9@TF022_613","P.Za Indipendenza","43.0370878740246","11.8238346466087","9@TF022"
"9@TF024_613","V.Le Baccelli 92","43.0387292081386","11.8200816830896","9@TF024"
"9@TF027_613","Via Roma, 15","43.0433471272721","11.8153812829738","9@TF027"
"9@TF028_613","Via Roma Ang. P.Za Italia","43.0444469080541","11.8146384343479","9@TF028"
"9@TF029_613","Chianciano-Via Delle Terme","43.0467733702625","11.8183614925608","9@TF029"
"9@TF030_613","Chianciano-V.Le Liberta' (Eurofrutta)","43.0484981323119","11.8191943780948","9@TF030"
"9@TF031_613","Chianciano-V.Le Liberta' (Mezzomiglio)","43.0502045348343","11.8202854909691","9@TF031"
"9@TF032_613","Chianciano-V.Le Liberta' (Distr. Api)","43.0522109717006","11.8216237123071","9@TF032"
"9@TF033_613","Chianciano-V.Le Liberta' (H.Miralaghi)","43.0544783912722","11.8232258350754","9@TF033"
"9@TF034_613","V.Le Liberta' Bv Imp.Sportivi","43.0552338311109","11.8228214353736","9@TF034"
"9@TF067_613","Viale Liberta' N.36","43.0571960933172","11.8239381582746","9@TF067"
"9@TF070_613","Chianciano-Loc. La Casina","43.0588800959663","11.8204669042017","9@TF070"
"9@TF073_613","Sant'Elena (Esterno)","43.0563863039967","11.821911926919","9@TF073"
"9@TF074_613","V.Le Liberta' 166 (Ang. V.Piave)","43.0545791122842","11.8230813988176","9@TF074"
"9@TF075_613","V.Le Liberta' (Consorzio Agrario)","43.0521268203256","11.8213849743732","9@TF075"
"9@TF076_613","V.Le Liberta'","43.0506740006959","11.8203115608194","9@TF076"
"9@TF077_613","V.Le Liberta' 356 (Hotel Rossana)","43.0482758132687","11.8188987440597","9@TF077"
"9@TF078_613","V.Le Liberta' (Bar Florida)","43.0467683608116","11.8177722551705","9@TF078"
"9@TF079_613","V.Le Roma Ang. P.Za Italia","43.0444177922775","11.8143177927293","9@TF079"
"9@TF080_613","V.Le Roma Ang. Largo Siena","43.0427466819854","11.8154489447933","9@TF080"
"9@TF083_613","V.Le Baccelli (Farmacia)","43.0383579949626","11.820529531472","9@TF083"
"9@TF084_613","V.Le Baccelli (Pensione Elena)","43.0372397594473","11.822241328687","9@TF084"
"9@TF085_613","V.Le Baccelli Ang. Via Giusti","43.0370186830565","11.8237195240654","9@TF085"
"9@TF086_613","Maglianella","43.034712289977","11.8421281195475","9@TF086"
"9@TF087_613","Chianciano-Loc.La Pedata","43.0353932489136","11.8371868877512","9@TF087"
"9@TF110_613","Viale Liberta' N.65","43.0568641666265","11.8234326184972","9@TF110"
"9@TF147_613","Via Abetone (Impianti Sportivi)","43.0562946241977","11.8247426447416","9@TF147"
"9@TF148_613","Via Abetone (Stadio)","43.057178541546","11.8252830031371","9@TF148"
"9@TF153_613","Chianciano-P.Zza Italia (Taxi)","43.0446216513111","11.8138236614434","9@TF153"
"9@TF162_613","Le Piane (Casa Cantoniera)","43.0403574703817","11.8061378524837","9@TF162"
"9@TF163_613","Via Le Piane Ang. Galilei","43.0391509406719","11.8122800129474","9@TF163"
"9@TF167_613","Chianciano - Strada Della Vittoria","43.0388952252841","11.798552501699","9@TF167"
"9@TF241_613","Chianciano-P.Za M.Ri Perugini Acquasanta","43.0414665095736","11.8170924045907","9@TF241"
"9@TF294_613","Chianciano-Autostazione","43.0370073636902","11.8260367557708","9@TF294"
"9@TF306_613","Chianciano-Loc.Scopetello","43.0679485198347","11.8512351121313","9@TF306"
"9@TF307_613","Chianciano-Loc.Poggio Alla Sala","43.0691553550338","11.8629789916199","9@TF307"
"9@TF308_613","Chianciano-Loc.Poggio Alla Sala Sp 30","43.0672647566043","11.8717653875369","9@TF308"
"9@TF388_613","Chianciano-Loc. Cerretelli(Carrozzeria)","43.06516198661","11.8394210522017","9@TF388"
"9@TF390_613","Parco Dei Fucoli","43.0395616970992","11.8184141664824","9@TF390"
"9@TF393_613","Parco Dei Fucoli","43.0397926117409","11.8187227926801","9@TF393"
"9@TF445_613","Chianciano-Casotto Anas Km. 11,28","43.0275146180746","11.7932927346979","9@TF445"
"9@TF446_613","Chianciano-Loc. Cerretelli Sp 30 Km 5,8","43.0648517170104","11.8396743127193","9@TF446"
"9@TF450_613","Chianciano-Poggio Alla Sala Sp 30 Km 2,9","43.0674944853136","11.8715812213254","9@TF450"
"9@TF451_613","Chianciano-Poggio Alla Sala Sp 30 Km 3,5","43.0692146438051","11.862409074508","9@TF451"
"9@TF452_613","Chianciano-Loc.Scopetello Sp 30 Km 4,65","43.0678720189363","11.8509159398014","9@TF452"
"9@TF460_613","Chianciano-V.Baccelli","43.0376256314216","11.8217616418355","9@TF460"
"9@TF492_613","Viale Roma Opp. Acquasanta","43.0415978563419","11.8168338741957","9@TF492"
"9@TF516_613","Chianciano-Loc. La Foce","43.025123821264","11.7796003483922","9@TF516"
"9@TF517_613","Chianciano-Loc. La Foce","43.0249725418265","11.7794154431662","9@TF517"
"9@TF528_613","Chianciano-Loc. Casina Ang V. Del Poggio","43.058970712466","11.820067562449","9@TF528"
"9@TF614_613","Chianciano-V.Trasimeno Ang. V.Risorgim.","43.0584830892484","11.8283380911436","9@TF614"
"9@TF646_613","Chianciano-Loc.Poggio Alla Sala","43.068310792325","11.8677569357408","9@TF646"
"9@TF647_613","Chianciano-Loc.Poggio Alla Sala","43.068443437571","11.8669556369388","9@TF647"
"9@TF805_613","Chianciano-P.Za Gramsci","43.0581926961011","11.8286114519355","9@TF805"
"9@TU155_613","Str.Pienza Pod. Poggio Colombo","43.1067891167566","11.7239512475606","9@TU155"
"9@TU190_613","Torrita V.Lauretana Sud","43.1675332634025","11.7839499726334","9@TU190"
"9@TU192_613","Torrita V.Lauretana Sud","43.1677177788072","11.7840452049101","9@TU192"
"9@TU283_613","Torrita","43.169231525907","11.7760568990557","9@TU283"
"9@TU284_613","Torrita P.Za Del Cadia","43.1700343216297","11.7829366985033","9@TU284"
"9@TU303_613","Torrita-P.Zza Del Cadia","43.1701162433869","11.7830002067328","9@TU303"
"9@TU304_613","Torrita-V.Mazzini N.C. 47 (Carabinieri)","43.1693399383933","11.7760624448949","9@TU304"
"9@TU375_613","Str.Pienza Biv.Montefollon","43.1081065884285","11.7202756276995","9@TU375"
"9@TU705_613","Torrita-Loc. Confino","43.1581486994833","11.79137526434","9@TU705"
"9@TU706_613","Torrita-V.Laur.Sud, Refenero","43.1654623458952","11.7851876540113","9@TU706"
"9@TU709_613","Torrita-Stadio Incr. Via I Maggio","43.1701559208204","11.7806479653193","9@TU709"
"9@TU711_613","Lamarmora","43.1675685287195","11.7742664470615","9@TU711"
"9@TU712_613","Torrita-Via Gioco Del Pallone","43.1656481151318","11.771382082881","9@TU712"
"9@TU713_613","Torrita-Loc. Il Cavone (Capolinea)","43.1626287974766","11.766240302115","9@TU713"
"9@TU714_613","Torrita-Via Lauretana Nord Nc 2","43.1688225253714","11.7749365440858","9@TU714"
"9@TU715_613","Torrita-Via Lauretana Nord Nc 78","43.1717620872794","11.77420551298","9@TU715"
"9@TU716_613","Torrita-Bv. Caselle","43.1805191782073","11.771023353874","9@TU716"
"9@TU717_613","Torrita-Loc. Guardavalle Nc.101","43.1845564632122","11.7675347819787","9@TU717"
"9@TU746_613","Torrita-Trav. Vald. Est, N.C. 156","43.1886750834279","11.8021621490091","9@TU746"
"9@TU747_613","Torrita-Trav. Vald. Est, N.C. 99","43.1819896718785","11.7943968242464","9@TU747"
"9@TU748_613","Torrita-Trav. Vald. Est, N.C. 81","43.1802764994146","11.7909935632854","9@TU748"
"9@TU749_613","Torrita-Trav. Vald. Est, N.C. 43","43.1788561695963","11.788685049809","9@TU749"
"9@TU750_613","Torrita-Via Mazzini, 241","43.1743694299254","11.7856573038893","9@TU750"
"9@TU751_613","Torrita-Via Mazzini, 183 P.Zza Chiesa","43.1719292184776","11.7836286739633","9@TU751"
"9@TU752_613","Il Cavone","43.1627796759426","11.7668091606921","9@TU752"
"9@TU753_613","Torrita-Trav. Vald. Ovest, N.C.35 Rist","43.1648198626042","11.770310041808","9@TU753"
"9@TU754_613","Lamarmora","43.1676981135051","11.7745789655194","9@TU754"
"9@TU756_613","Torrita-Via Mazzini, 75 Campo Sportivo","43.1700984482598","11.7810488499664","9@TU756"
"9@TU757_613","Torrita-Via Grosseto","43.1697727188963","11.7839721496456","9@TU757"
"9@TU759_613","Torrita-Trav. Vald. Est, N.C. 54","43.1790646069933","11.7889990532024","9@TU759"
"9@TU760_613","Torrita-Trav. Vald. Est, N.C. 63","43.1801917274744","11.791146570746","9@TU760"
"9@TU761_613","Torrita-Trav. Vald. Est","43.1820669282377","11.7947356355904","9@TU761"
"9@TU762_613","Torrita-Trav. Vald. Est Loc. La Quercia","43.1888258141802","11.8024044518511","9@TU762"
"9@TU788_613","Torrita-Loc. Guardavalle Nc.108","43.1843416417112","11.7676680489587","9@TU788"
"9@TU789_613","Torrita-Bv. Caselle","43.180267078655","11.7710227716109","9@TU789"
"9@TU790_613","Torrita-Via Lauretana Nord, 33 Le Fonti","43.1715568998392","11.7741269588564","9@TU790"
"9@TU791_613","Torrita-Via Lauretana Nord, 43","43.1687590206919","11.7747706738581","9@TU791"
"9@TU794_613","Torrita-Via Lauretana Sud (Curvone)","43.1638166996556","11.7845470190511","9@TU794"
"9@TU795_613","Torrita-Loc. Confino","43.157948766165","11.7914507747751","9@TU795"
"9@TU800_613","Torrita F.S.","43.1741737733132","11.7874045798184","9@TU800"
"9@TU803_613","Torrita-Podere La Croce Sp 15","43.1623259839522","11.7598586910023","9@TU803"
"9@TU804_613","Torrita-Podere La Casella Sp 15","43.1628806674276","11.7575977949167","9@TU804"
"9@TU805_613","Torrita-Podere Il Maggiolino Sp 15","43.1575077595733","11.7528221624567","9@TU805"
"9@TU806_613","Torrita-Podere Palazzeta Sp 15","43.1475056906312","11.7387001408101","9@TU806"
"9@TU807_613","Torrita-Agriturismo Vigna Sp 15","43.1455457317875","11.7377127037188","9@TU807"
"9@TU808_613","Torrita-Scuole Campoccoli Sp 15","43.1397019986712","11.73613528472","9@TU808"
"9@TU809_613","Botteghino Di Montefollonico Sp 15","43.1346318360484","11.7297663416502","9@TU809"
"9@TU810_613","Bv. Montepulciano-Podere Palazzolo","43.1297286938086","11.7278962360699","9@TU810"
"9@TU811_613","Montefollonico-V.Del Giglio Pod. Paolino","43.1300811090123","11.7333483997224","9@TU811"
"9@TU812_613","Montefollonico-V. Del Giglio,25","43.1256036357025","11.7424364187028","9@TU812"
"9@TU813_613","Montefollonico-V. Del Giglio,5","43.126985885916","11.7428070138132","9@TU813"
"9@TU814_613","Montefollonico-V. Del Giglio,17","43.1273000290371","11.7450999486023","9@TU814"
"9@TU815_613","Montefollonico-Via Della Madonna","43.1257437525962","11.7441022043223","9@TU815"
"9@TU816_613","Montefollonico-V. Del Giglio","43.1274371218762","11.7450153605816","9@TU816"
"9@TU817_613","Montefollonico-V. Del Giglio, 7","43.1269306972716","11.7426678481127","9@TU817"
"9@TU818_613","Montefollonico-V. Del Giglio, 29","43.1255526138976","11.7423112106467","9@TU818"
"9@TU819_613","Montefollonico-V.Del Giglio Pod. Paolino","43.1301676306393","11.7332696420786","9@TU819"
"9@TU820_613","Bv. Montefollonico","43.1298202452472","11.7280216453472","9@TU820"
"9@TU821_613","Botteghino Di Montefollonico Sp 15","43.1347487911593","11.7299590397348","9@TU821"
"9@TU822_613","Torrita-Scuole Campoccoli Sp 15","43.1395499383007","11.7360930881363","9@TU822"
"9@TU823_613","Torrita-Podere Palazzeta Sp 15","43.1465541619856","11.7387667035324","9@TU823"
"9@TU824_613","Torrita-Ex Discarica Sp 15","43.1546292859468","11.748025558585","9@TU824"
"9@TU825_613","Torrita-Podere Il Maggiolino Sp 15","43.1574837803612","11.7530701424592","9@TU825"
"9@TU826_613","Torrita-Podere La Casella Sp 15","43.1628986336632","11.7577861817799","9@TU826"
"9@TU827_613","Torrita-Podere La Croce Sp 15","43.1622114272483","11.7599584370531","9@TU827"
"MPU001_613","S.P. 10/B Lauretana Dir. Capezzine","43.1497352705699","11.9048803552595","MPU001"
"MPU002_613","S.P. 10/B Lauretana Dir. Valiano","43.149874163053","11.9049081392353","MPU002"
