stop_id,stop_name,stop_lat,stop_lon,stop_code
"2@1521_600","Peretola","43.7987900793627","11.1957288266728","2@1521"
"2@1522_600","Palagio Degli Spini","43.7994569238106","11.1938054826112","2@1522"
"2@1523_600","Ponte A Giogoli","43.8035436859721","11.1862022956809","2@1523"
"2@1524_600","Osmannoro 01","43.8051742821808","11.1812622058204","2@1524"
"2@1525_600","Casa Rossa 01","43.806347104516","11.1791374542297","2@1525"
"2@3431A_600","Via Baracca 17","43.7903710534393","11.222138386801","2@3431A"
"2@3432A_600","Via Baracca Distr. Agip","43.791577518119","11.2186358259157","2@3432A"
"2@6013_600","Porta Al Prato","43.7778086900976","11.2397241014307","2@6013"
"2@C0061_600","Palatucci","43.8476810752277","10.495580341192","2@C0061"
"2@C0067_600","Stazione Fs Viareggio 1","43.8738029286421","10.2523010319188","2@C0067"
"2@C0078_600","Arrivo Palatucci","43.8476198480524","10.4951432693562","2@C0078"
"2@C0088_600","Stazione Fs Viareggio 2","43.8739254816123","10.2517254701019","2@C0088"
"2@C0149_600","P.Za D'Azeglio Nord","43.8668042749444","10.2441511472179","2@C0149"
"2@C0188_600","Via M.Polo Ang.Bixio","43.8851511623932","10.2476700477684","2@C0188"
"2@C0192_600","Via Aurelia Nord Merc.Fiori","43.8826316102684","10.2476454026418","2@C0192"
"2@C0225_600","V.Aurelia Ang Pascoli 2","43.8794589161425","10.2499131495007","2@C0225"
"2@C0229_600","Via Aurelia Cimitero 1","43.8840922103654","10.2465275839536","2@C0229"
"2@C0454_600","Carducci 1","43.8382475858261","10.499986394833","2@C0454"
"2@C0455_600","Carducci 4","43.8380523638968","10.5002831441631","2@C0455"
"2@C0458_600","Stazione Fs","43.8375913605805","10.5053913613585","2@C0458"
"2@C0490_600","Viale Papi","43.843848455684","10.4940542894378","2@C0490"
"2@C0973_600","Via Aurelia Cimitero 2","43.88378565278","10.2469802245619","2@C0973"
"2@C5047_600","Osmannoro","43.8046435072842","11.1818203755772","2@C5047"
"2@C5099_600","Verdi 4","43.8423412069419","10.4967893495787","2@C5099"
"2@C5518_600","Via S.Francesco Comune","43.8667862941579","10.2499236196741","2@C5518"
"2@C5519_600","Via Machiavelli","43.8688958251834","10.2484416075153","2@C5519"
"2@C5600_600","Firenze Leopolda 1","43.7782630780088","11.2385523271435","2@C5600"
"2@C5601_600","Firenze Leopolda 2","43.7796272944742","11.2363877588004","2@C5601"
"2@C5602_600","Fermata Mista Uscita Porta A Prato","43.7782337585078","11.2384975406929","2@C5602"
"2@C6000_600","Via Pratese At","43.8013693081708","11.1901293641587","2@C6000"
"2@C6202_600","Viale Europa  Hotel Napoleon","43.8351807502914","10.4945751217229","2@C6202"
"2@C6203_600","Viale Europa 736","43.8330599534967","10.4942656532642","2@C6203"
"2@C6206_600","Viale Europa Fr.736","43.8328153507317","10.4943808165854","2@C6206"
"2@C6207_600","Viale Europa Fr. Hotel Napoleon","43.8350034080551","10.4947106240492","2@C6207"
"2@C6406_600","Via Maragliano","43.7888602379159","11.2302768854895","2@C6406"
"2@C6408_600","Via Pratese, Fr. 162","43.802632008642","11.1876644043334","2@C6408"
"2@C6409_600","Via Pratese , 57","43.7986565740786","11.1958973810032","2@C6409"
"2@C6434_600","Viale Redi 5","43.7835536706155","11.2424897467759","2@C6434"
"2@C6436_600","Firenze Via Di Novoli","43.7929721339165","11.2217114920804","2@C6436"
"2@CAL500_600","Centro Direzionale Autosole In Uscita","43.8319401694406","11.159700352455","2@CAL500"
"2@CAL502_600","Centro Direzionale Autosole In Entrata","43.831938084513","11.1596499060208","2@CAL502"
"2@D0331_600","Via  Pacinotti 40","43.9295991685117","10.9109842379098","2@D0331"
"2@D0333_600","Via  Pacinotti  14","43.929261421632","10.9137964621344","2@D0333"
"2@D0362_600","Costituzione, Fr. 11","43.9304197933916","10.9136992023991","2@D0362"
"2@D0365_600","Piazza Garibaldi","43.930938477826","10.9165936497863","2@D0365"
"2@D0438_600","Via Macalle'  8","43.9299564396702","10.9056589091298","2@D0438"
"2@D0440_600","Via Macalle'  Fr 69","43.9292645120434","10.9020527708833","2@D0440"
"2@D0499_600","Via  Macalle' 26","43.9278279331836","10.8998831053888","2@D0499"
"2@D0683_600","Via Baracca, 148","43.7942125703492","11.2101776297789","2@D0683"
"2@D0684_600","Via Baracca, 183","43.793621237654","11.211423620368","2@D0684"
"2@D0685_600","Via Baracca ,140 (Il Barco)","43.7930569253433","11.2137307744409","2@D0685"
"2@D0686_600","Via Baracca, 149","43.7923262564643","11.2155271614865","2@D0686"
"2@D0687_600","Firenze Via Baracca 1","43.7893808697111","11.2239318134199","2@D0687"
"2@D0688_600","Firenze Via Baracca 2","43.7892767742042","11.2237290966411","2@D0688"
"2@D0689_600","Firenze Piazza Puccini 1","43.7861539322485","11.2281042444915","2@D0689"
"2@D0690_600","Firenze Piazza Puccini 2","43.7853971529329","11.229227355538","2@D0690"
"2@D0691_600","Via Delle Porte Nuove Fr. Inail","43.7818742576759","11.2376461026406","2@D0691"
"2@D0692_600","Via Delle Porte Nuove, 123","43.7822878575092","11.2349151703381","2@D0692"
"2@D0693_600","Via Delle Porte Nuove, 10","43.7796709412504","11.2402728558976","2@D0693"
"2@D0694_600","Porta  A  Prato","43.7782744960291","11.239400564662","2@D0694"
"2@D0701_600","Via Barsanti, 8","43.7971505649752","11.2262586332437","2@D0701"
"2@D0702_600","Via Barsanti, Fr. 8","43.7972487640932","11.2258396573233","2@D0702"
"2@D0703_600","Firenze Nova","43.8023828003129","11.2301337149706","2@D0703"
"2@D0705_600","Bonellina, Fr. 18","43.9254981957774","10.9188729192173","2@D0705"
"2@D0707_600","Bonellina Cimitero Della Vergine","43.9229270735059","10.9183927193012","2@D0707"
"2@D0708_600","Bonellina Fr. Cimitero","43.9233575891092","10.9182061775449","2@D0708"
"2@D1506_600","Via Pratese, 85","43.799321766333","11.1936096725216","2@D1506"
"2@D3083_600","Carratica, 51","43.9294562761686","10.9185392750282","2@D3083"
"2@D3174_600","Via Toselli, 60","43.783453327641","11.2351698724196","2@D3174"
"2@D3348_600","P.Za Dante Partenza","43.9270906710011","10.9142111381491","2@D3348"
"2@D3349_600","P.Za Dante Arrivo","43.9273609487802","10.9140993882123","2@D3349"
"2@DFI220_600","Viale Gori, 18","43.7969752048886","11.2055933730294","2@DFI220"
"2@DFI260_600","Viale Giovanni Luder (Aeroporto Peretola","43.8010587022202","11.2016041705644","2@DFI260"
"2@DFI262_600","Fine Autostrada  A11 Fr. Aeroporto","43.8007716554972","11.2015792969911","2@DFI262"
"2@DFI272_600","Via Toselli, 160","43.7855007914735","11.2312185702995","2@DFI272"
"2@DFI300_600","Via Volturno Novohotel","43.8106528076546","11.1773644523965","2@DFI300"
"2@FI_240_600","Via B. Dei, 2/A","43.7944434164801","11.2348711764816","2@FI_240"
"2@FI_246_600","Viale Guidoni, 206","43.7982980102447","11.214007665273","2@FI_246"
"2@FI_248_600","Viale Guidoni, 123","43.798205937375","11.2139048889563","2@FI_248"
"2@FI_252_600","Via Panciatichi Banca Toscana","43.8012817170036","11.2318692862031","2@FI_252"
"2@FI_254_600","Via Ponte Di Mezzo, 17","43.7921287914764","11.2362887929256","2@FI_254"
"2@FI_256_600","Viale F. Redi, 5","43.7835349029451","11.2424925659413","2@FI_256"
"2@MCT000_600","Piazza Italia (Stazione Fs) Capolinea","43.8797218375794","10.7813794146421","2@MCT000"
"6@0722_600","Galcianese 14","43.880715312342","11.0885701512822","6@0722"
"6@08A230_600","Pratese Fr.162","43.8033609476736","11.1862821186785","6@08A230"
"6@08A232_600","Via Pratese At","43.8014320175552","11.1901825816389","6@08A232"
"6@08A235_600","Via Pratese, 85","43.7993223598833","11.1936154951735","6@08A235"
"6@08A240_600","Pratese, 57","43.7987301165745","11.1955496886943","6@08A240"
"6@1409_600","Porta Leone 1","43.8802138854759","11.0892018846127","6@1409"
"6@1411_600","Europa 1","43.8771791822564","11.1060689776853","6@1411"
"6@1439_600","Ippodromo","43.8700471020464","11.0840148055013","6@1439"
"6@1442_600","Museo Pecci 1","43.8612105601377","11.1079228919117","6@1442"
"6@1443_600","Delle Fonti 6","43.8582675911266","11.1036741066323","6@1443"
"6@1444_600","Questura","43.8603112952567","11.1065090253394","6@1444"
"6@1445_600","Museo Pecci 2","43.8616172472643","11.1086512711779","6@1445"
"6@1446_600","Repubblica 2","43.8636945134968","11.1102810248178","6@1446"
"6@1447_600","Di Gello 3","43.8729388350199","11.0763949264571","6@1447"
"6@1515_600","Porte Nuove Belfiore","43.7794185712105","11.2404374807231","6@1515"
"6@1519_600","Geminiani Poste","43.798509721315","11.2075010080616","6@1519"
"6@1521_600","Pratese Magrini","43.7987900793627","11.1957288266728","6@1521"
"6@1522_600","Pratese Palagio Degli Spini","43.7994569238106","11.1938054826112","6@1522"
"6@1523_600","Pratese Ponte A Giogoli","43.8035436859721","11.1862022956809","6@1523"
"6@1524_600","Lucchese Righi","43.8051742821808","11.1812622058204","6@1524"
"6@1525_600","Casa Rossa 01","43.8063430699211","11.1791085168941","6@1525"
"6@17A040_600","Lucchese, 19","43.8046974322153","11.1818623276714","6@17A040"
"6@2015_600","Ceppo Vecchio","43.8783504620376","11.0982249395652","6@2015"
"6@2016_600","Plesso Scolastico Via Dossetti","43.8820607226724","11.0821718267897","6@2016"
"6@2048_600","Pomeria 1","43.8768357859834","11.1012685062107","6@2048"
"6@2179_600","Prato Stazione Fs 5","43.8787453976913","11.1083301624294","6@2179"
"6@2358_600","Colombo 2","43.8814963640039","11.0866878494927","6@2358"
"6@2403_600","Monnet 1","43.8790432127607","11.0874416339234","6@2403"
"6@2414_600","Roncioni 3","43.8735820422724","11.0897942638191","6@2414"
"6@2418_600","Roncioni 1","43.8750884675058","11.0857512117454","6@2418"
"6@2420_600","Fiordaliso 1","43.8710358694353","11.0819650254981","6@2420"
"6@2428_600","Monnet 3","43.8762181381206","11.0851241172836","6@2428"
"6@2429_600","Pomeria 3","43.8760705317609","11.0987934924297","6@2429"
"6@2430_600","Di Gello 1","43.8716798638403","11.0803501055147","6@2430"
"6@2434_600","Reggiana 1","43.8739937908372","11.0733169085361","6@2434"
"6@2435_600","Galcianese 5","43.8782545162539","11.0786087020444","6@2435"
"6@2466_600","Plesso Scolastico Via Reggiana","43.8759240417633","11.0683382276646","6@2466"
"6@2467_600","Reggiana 3","43.8749043112438","11.0708580042647","6@2467"
"6@2468_600","Plesso Scolastico Via Reggiana","43.8748798723107","11.070726097984","6@2468"
"6@2470_600","Reggiana 10","43.8738976367935","11.0733052476313","6@2470"
"6@2591_600","Dossetti 2","43.8805500394188","11.0793349391567","6@2591"
"6@2611_600","Di San Giusto 8","43.8765853196993","11.0797297247505","6@2611"
"6@2636_600","Reggiana 6","43.8758975784003","11.0682085734451","6@2636"
"6@2700_600","Roma 1","43.8758896358801","11.0929255816007","6@2700"
"6@2701_600","Roma 3","43.8739296243737","11.0911788470564","6@2701"
"6@2703_600","Zarini 1","43.8724526819001","11.0928713339528","6@2703"
"6@2704_600","Soccorso","43.8712235116382","11.088873732272","6@2704"
"6@2705_600","Marx","43.8701138477995","11.0917271248703","6@2705"
"6@2727_600","Ferraris 1","43.8616473555981","11.0930763736911","6@2727"
"6@2728_600","Ferraris 6","43.8616948534009","11.0931866683383","6@2728"
"6@2734_600","Fiorentina 3","43.8638977750364","11.0928642024682","6@2734"
"6@2736_600","Fiorentina 1","43.8649789835709","11.0938768539547","6@2736"
"6@2737_600","Pomeria 5","43.8756644554606","11.0947727177173","6@2737"
"6@2740_600","Arcangeli 4","43.8746547179503","11.0952148942456","6@2740"
"6@2742_600","Arcangeli 2","43.8734099751665","11.0942783894394","6@2742"
"6@2745_600","Zarini 3","43.8715354820201","11.0954509331095","6@2745"
"6@2751_600","Ferraris 3","43.860489684649","11.0973475842787","6@2751"
"6@2752_600","Ferraris 4","43.8606046001466","11.0972183464105","6@2752"
"6@2753_600","Ferraris 5","43.8593441210007","11.1018369537865","6@2753"
"6@2764_600","Ferraris 2","43.8593355846702","11.1021891450028","6@2764"
"6@2770_600","Zarini 11","43.8670865217083","11.1074131302109","6@2770"
"6@2771_600","Zarini 9","43.868278801538","11.1041772882553","6@2771"
"6@2772_600","Zarini 4","43.8685491146898","11.1036330003128","6@2772"
"6@2773_600","Zarini 5","43.8703828125565","11.0986318880594","6@2773"
"6@2774_600","Zarini 7","43.8691330622373","11.1018827339631","6@2774"
"6@2788_600","Della Francesca","43.8630049880298","11.1075995845152","6@2788"
"6@2822_600","Valentini 10","43.8750522341359","11.1023292124639","6@2822"
"6@2823_600","Fiorentina 4","43.8649873166735","11.094194375317","6@2823"
"6@2826_600","Boni","43.8697853101467","11.1022131870739","6@2826"
"6@2827_600","Meoni","43.8714527523914","11.1009401448354","6@2827"
"6@2840_600","Fiorentina 2","43.8637111205303","11.0928796955302","6@2840"
"6@2852_600","Panziera","43.8686160444232","11.0906400448706","6@2852"
"6@2857_600","Simintendi","43.8755418071991","11.1018954974306","6@2857"
"6@2877_600","Zarini 2","43.8674148759265","11.1068811175616","6@2877"
"6@2880_600","Ferrucci 11","43.866193854915","11.1115025337005","6@2880"
"6@2900_600","Aeroporto 1","43.8006050767309","11.2016548466642","6@2900"
"6@2902_600","Baracca Vecchi","43.7937575966507","11.2111181236035","6@2902"
"6@2903_600","Baracca Baracchini","43.7926676181857","11.2145770985745","6@2903"
"6@2904_600","Baracca Leoncavallo","43.7890821333478","11.2239819620952","6@2904"
"6@2905_600","Ponte Alle Mosse Puccini","43.7853169818648","11.2295792664278","6@2905"
"6@2906_600","Ponte Alle Mosse Marcello","43.7823905503367","11.2348334584624","6@2906"
"6@2907_600","Ponte Alle Mosse Leopolda","43.7794754239295","11.2382399434038","6@2907"
"6@2914_600","Porte Nuove Marcello","43.7819524302183","11.2374603375417","6@2914"
"6@2915_600","Toselli Bellini","43.7835599404354","11.2348003659583","6@2915"
"6@2916_600","Toselli Veracini","43.7855868113588","11.2311036890692","6@2916"
"6@2917_600","Piazza Puccini","43.7861272945885","11.228139563486","6@2917"
"6@2918_600","Baracca Paganini","43.7902254138929","11.222921705822","6@2918"
"6@2919_600","Baracca Il Barco","43.7932115320217","11.2131474538563","6@2919"
"6@2921_600","Gori Geminiani","43.7969615352355","11.2055346405456","6@2921"
"6@2922_600","Aeroporto 2","43.8010349112505","11.202284895765","6@2922"
"6@2925_600","Berlinguer","43.8596184919934","11.1066403277455","6@2925"
"6@2927_600","Da Vinci 4","43.8670582004501","11.0945464618895","6@2927"
"6@2929_600","Allori","43.7969811802849","11.2109750199392","6@2929"
"6@3402_600","Centro Direzionale - A1 Fi Nord","43.8318324985962","11.1597982181768","6@3402"
"6@3404_600","Centro Direzionale - A1 Fi Nord","43.8318257036686","11.1599671204846","6@3404"
"6@3431A_600","Via Baracca 17","43.7904289697011","11.2221587993071","6@3431A"
"6@3431_600","Baracca Miccinesi","43.79077334784","11.2209321686904","6@3431"
"6@3432A_600","Via Baracca Distr. Agip","43.7918690133537","11.2177474805406","6@3432A"
"6@3432_600","Baracca Tagliaferri","43.7921495582522","11.216554686318","6@3432"
"6@5006_600","Valentini 8","43.8731507957471","11.100523890726","6@5006"
"6@6003B_600","Leopolda Michelucci","43.7784855146074","11.2384005390249","6@6003B"
"6@6004_600","Leopolda Gabbuggiani","43.7782337585078","11.2384975406929","6@6004"
"6@6005_600","Firenze Leopolda P2","43.7796272944742","11.2363877588004","6@6005"
"6@6006_600","Firenze Vittorio Veneto","43.776498809195","11.2347018232406","6@6006"
"6@6011_600","Firenze Vittorio Veneto P3","43.7766158344966","11.2356691846143","6@6011"
"6@6012_600","T1 Porta Al Prato - Leopolda","43.7775182306477","11.2381395627881","6@6012"
"6@6013_600","T1 Porta Al Prato - Leopolda","43.7778086900976","11.2397241014307","6@6013"
"6@ALT044_600","Piazza B.Croce 1","43.816003207758","10.6782858163532","6@ALT044"
"6@ALT120_600","Via Delle Cerbaie, 26","43.8181942075422","10.6852236735056","6@ALT120"
"6@ALT122_600","Via Delle Cerbaie, 37","43.8183746698273","10.6851668087071","6@ALT122"
"6@B_0362_600","Costituzione 11 Fr.","43.9304060688394","10.9137544076522","6@B_0362"
"6@B_0365_600","P. Garibaldi","43.930934820031","10.9165853930249","6@B_0365"
"6@B_0683_600","Baracca 148 <Fi_218>","43.7941958898584","11.2101455267147","6@B_0683"
"6@B_0684_600","Baracca, 183 <Fi_224>","43.7936512659037","11.2114343920329","6@B_0684"
"6@B_0685_600","Baracca, 140 <Fi_216>","43.7929077727755","11.2142596214368","6@B_0685"
"6@B_0686_600","Baracca 149 (Salvagente) <Fi_226>","43.7923451440695","11.2155181234538","6@B_0686"
"6@B_0687_600","Baracca, 50 <Fi_214>","43.7893595737188","11.2239057522005","6@B_0687"
"6@B_0688_600","Baracca 70 Fr. <Fi_228>","43.7892783622696","11.2236837502751","6@B_0688"
"6@B_0689_600","P. Puccini (Distr. Agip) <Fi_212>","43.7861523675887","11.2280634843151","6@B_0689"
"6@B_0690_600","Ponte Alle Mosse, 223 <Fi0290>","43.7854157676869","11.2292323558839","6@B_0690"
"6@B_0691_600","Porte Nuove  Fr. Inail <Fi_271>","43.7818575848952","11.2376139989935","6@B_0691"
"6@B_0692_600","Ponte Alle Mosse, 123 <Fi_292>","43.7823018520553","11.2349262134534","6@B_0692"
"6@B_0693_600","Porte Nuove, 10 <Fi_270>","43.7796584924749","11.2402549524078","6@B_0693"
"6@B_0694_600","Porta A Prato  <Fi_294>","43.7782112677004","11.2394712099345","6@B_0694"
"6@B_0702_600","V. Barsanti 8 Fr. <Fi_244>","43.7972264098521","11.2258817938387","6@B_0702"
"6@B_0705_600","Bonellina, 18 Fr.","43.9255218222584","10.9188483499044","6@B_0705"
"6@B_0706_600","Bonellina 16","43.9259511883971","10.9190147552939","6@B_0706"
"6@B_0707_600","Bonellina   (Cimitero La Vergine)","43.9228112045881","10.9183482641761","6@B_0707"
"6@B_0708_600","Bonellina  (Fr. Cimitero)","43.9233063300822","10.918244598191","6@B_0708"
"6@B_1341_600","P. L. Da Vinci - (Arca)","43.9285127690758","10.9182033115873","6@B_1341"
"6@B_3083_600","Carratica, 51","43.9294803208238","10.9184898019601","6@B_3083"
"6@B_3099_600","P. Treviso, 1","43.9292637112642","10.9150336730472","6@B_3099"
"6@B_3174_600","Toselli, 60 <Fi_273>","43.7834411210479","11.2351395506163","6@B_3174"
"6@B_3348_600","P. Dante (Stazione - 3)","43.9271220424393","10.9143108475382","6@B_3348"
"6@B_3349_600","P.Za Dante (Arrivo) <Pt0000>","43.9273075130736","10.9141066017907","6@B_3349"
"6@C0061_600","Palatucci","43.8476810752277","10.495580341192","6@C0061"
"6@C0067_600","P.Za Dante Stazione Fs","43.8739500820241","10.2522576919928","6@C0067"
"6@C0078_600","Arrivo Palatucci","43.8476198480524","10.4951432693562","6@C0078"
"6@C0088_600","P.Za Dante Bar Excelsa","43.8740517043095","10.2516110546212","6@C0088"
"6@C0149_600","P.Za D'Azeglio Nord","43.8668042749444","10.2441511472179","6@C0149"
"6@C0188_600","Via M.Polo Ang.Bixio","43.8851511623932","10.2476700477684","6@C0188"
"6@C0192_600","Via Aurelia Nord Merc.Fiori","43.8826131668117","10.2475781712382","6@C0192"
"6@C0214_600","Via Aurelia Nord Esselunga","43.8793106375613","10.2502990317884","6@C0214"
"6@C0229_600","Via Aurelia Nord Cimiteri","43.8840922103654","10.2465275839536","6@C0229"
"6@C0454_600","Carducci 1","43.8382475858261","10.499986394833","6@C0454"
"6@C0455_600","Carducci 4","43.8382200826835","10.4996809542376","6@C0455"
"6@C0458_600","V.Le Cavour Fs","43.8375129592993","10.5055265263776","6@C0458"
"6@C0459_600","Viale Regina Margherita Fs","43.8384895934067","10.5048622844006","6@C0459"
"6@C0488_600","Via L.Papi Lato Mura","43.8437597281648","10.4942802672819","6@C0488"
"6@C0490_600","V.Le L.Papi Ang.Angeloni","43.8437649101376","10.4939435406406","6@C0490"
"6@C0973_600","Via Aurelia Ang.Don Tazzoli","43.88378565278","10.2469802245619","6@C0973"
"6@C5518_600","Via S.Francesco Comune","43.8667862941579","10.2499236196741","6@C5518"
"6@C5519_600","Via Machiavelli","43.8688958251834","10.2484416075153","6@C5519"
"6@C6200_600","Piazzale Verdi","43.8424610371736","10.4968809151023","6@C6200"
"6@C6202_600","V.Le Europa, Hotel Napoleon","43.8356615516205","10.4946431589123","6@C6202"
"6@C6203_600","Viale Europa 736","43.8330599534967","10.4942656532642","6@C6203"
"6@C6206_600","Viale Europa Fr.736","43.8328153507317","10.4943808165854","6@C6206"
"6@C6207_600","V.Le Europa, Fr. Hotel Napoleon","43.8354735928984","10.4947505353085","6@C6207"
"6@CAL500_600","Centrodirezionaleautosole(Inuscita)","43.8318417913875","11.1598781522818","6@CAL500"
"6@D0683_600","Via Baracca, 148","43.7942125703492","11.2101776297789","6@D0683"
"6@D0684_600","Via Baracca, 183","43.7936423051976","11.211461250672","6@D0684"
"6@D0685_600","Via Baracca ,140","43.7929079133446","11.2143181682002","6@D0685"
"6@D0686_600","Via Baracca, 149","43.7923262564643","11.2155271614865","6@D0686"
"6@D0687_600","Via Baracca, 50","43.7893808697111","11.2239318134199","6@D0687"
"6@D0688_600","Via Baracca, Fr. 70","43.7892767742042","11.2237290966411","6@D0688"
"6@D0689_600","Piazza Puccini Distr. Agip","43.7861919368533","11.2279966018064","6@D0689"
"6@D0690_600","Via Ponte Alle Mosse, 223","43.7853971529329","11.229227355538","6@D0690"
"6@D0691_600","Via Delle Porte Nuove Fr. Inail","43.7818742576759","11.2376461026406","6@D0691"
"6@D0692_600","Via Delle Porte Nuove, 123","43.7822878575092","11.2349151703381","6@D0692"
"6@D0693_600","Via Delle Porte Nuove, 10","43.7796709412504","11.2402728558976","6@D0693"
"6@D0694_600","Porta  A  Prato","43.7782744960291","11.239400564662","6@D0694"
"6@D3174_600","Via Toselli, 60","43.783453327641","11.2351698724196","6@D3174"
"6@DFI220_600","Viale Gori, 18","43.7969752048886","11.2055933730294","6@DFI220"
"6@DFI260_600","Viale Guidoni Aeroporto","43.8010354383963","11.2023362003195","6@DFI260"
"6@DFI262_600","Fine Autostrada  A11 Fr. Aeroporto","43.8006709642328","11.2015101405645","6@DFI262"
"6@DFI272_600","Via Toselli, 160","43.7855722295956","11.2311333943304","6@DFI272"
"6@DFI300_600","Via Volturno Novohotel","43.8106468316487","11.1773748860522","6@DFI300"
"6@FIT200_600","Palina Fittizia N. 1","43.8763105528297","10.7832978540332","6@FIT200"
"6@FIT201_600","Palina Fittizia N. 2","43.8766398412504","10.7830823910573","6@FIT201"
"6@FI_126_600","Piazza Mattei","43.8026495667942","11.2300481618528","6@FI_126"
"6@FI_215_600","Via Baracca ( Distributore Agip)","43.7918565923949","11.2177279632315","6@FI_215"
"6@FI_220_600","V.Le Gori, 18","43.7969588828454","11.2055426378378","6@FI_220"
"6@FI_240_600","Via B. Dei, 2/A","43.7944626699711","11.2348435136207","6@FI_240"
"6@FI_242_600","Via Panciatichi, 54","43.8011891391974","11.2324962930837","6@FI_242"
"6@FI_246_600","V.Le Guidoni, 206","43.7983010922301","11.214015113022","6@FI_246"
"6@FI_262_600","Fine  Autostrada A11, (Fr. Aeroporto)","43.8006814899473","11.2014895502233","6@FI_262"
"6@FM8848_600","Santoni T2 Guidoni","43.7992360443417","11.2078543011808","6@FM8848"
"6@MCT000_600","Montecatini Stazione","43.879621915485","10.7811579643724","6@MCT000"
"6@PO_116_600","Martini 1","43.878365230582","11.1030570191485","6@PO_116"
"6@PO_117_600","Martini 2","43.8780882718101","11.1027790415313","6@PO_117"
"7@FM0176_600","Baracca Gori","43.7951348185389","11.2069857223087","7@FM0176"
"7@FM8848_600","Santoni T2 Guidoni","43.799271742098","11.2078441627458","7@FM8848"
"7@FM8849_600","Geminiani Poste","43.7982438404236","11.2074019776269","7@FM8849"
"8@0011_600","V.Le C.B.Di Cavour N.76","43.3302416783465","11.3189192243735","8@0011"
"8@0013_600","P.Diavoli","43.3323501706003","11.3130476321374","8@0013"
"8@0048_600","P.Diavoli","43.332154483924","11.3136853037934","8@0048"
"8@0050_600","V.Le C.B.Di Cavour.N.83","43.3299637040328","11.3193018577316","8@0050"
"8@0063_600","Siena-V.Le V.Emanuele Ii","43.3288765396191","11.3219682715798","8@0063"
"8@0064_600","Siena-Antiporto Camollia V.Vitto","43.3287111004503","11.3220364632482","8@0064"
"8@0065_600","P.Camollia","43.3279954596601","11.3242959975672","8@0065"
"8@0067_600","Siena-Bv .Montluc.","43.3257579751824","11.3252510832393","8@0067"
"8@0095_600","Siena-V Le V.Veneto N.5","43.3206922140708","11.3226545859983","8@0095"
"8@0096_600","Siena-P.Zza San Domenico","43.320276330142","11.326338159034","8@0096"
"8@0260_600","Fontebecci","43.3423378709014","11.305879001451","8@0260"
"8@0262_600","T.Fiorentina","43.3368728023372","11.3075125146532","8@0262"
"8@0275_600","V.N.Sauro","43.3253069402241","11.3247828436224","8@0275"
"8@0380_600","Torre Fiorentina","43.3371165571656","11.3074651744377","8@0380"
"8@0382_600","Fontebecci","43.3425497117788","11.3060319800865","8@0382"
"8@2000A_600","Siena-Via Tozzi","43.322841844254","11.3276836808907","8@2000A"
"8@2000_600","Siena-Via Tozzi","43.3228438476229","11.3276958435147","8@2000"
"8@2369_600","Siena-V.Le R.Franci","43.3237849806479","11.3248936143373","8@2369"
"8@4063_600","Colle V.Elsa (V.Bilenchi)","43.422569070629","11.1278010060167","8@4063"
"8@4085_600","Ospedale Val D'Elsa","43.4525018366226","11.1502910743349","8@4085"
"8@4086_600","Ospedale Val D'Elsa","43.4526751436005","11.1501499021092","8@4086"
"8@4088_600","Str.Prov.Ang.V.Dellabadia","43.4236446007573","11.1308605615661","8@4088"
"8@4089_600","Str.Prov.Per Siena Calp","43.4198617686946","11.1374664008968","8@4089"
"8@4113_600","Str.Prov. Opposto Calp","43.4200440722634","11.1371741313019","8@4113"
"8@4114_600","Str.Prov.Op.V.Della Badia","43.4237253382683","11.1307715809088","8@4114"
"8@4223_600","Belvedere","43.414822659968","11.1565321302798","8@4223"
"8@4236_600","Belvedere","43.4148923080417","11.1566059947565","8@4236"
"8@4312_600","Colle V.Elsa Distr.Api","43.4263923006341","11.1262069153811","8@4312"
"8@4313_600","Colle V.Elsa  Distr.Esso","43.4317166085889","11.1362674684864","8@4313"
"8@4314_600","Colle V.Elsa 100 Mt. Sup.","43.433542816751","11.141886198329","8@4314"
"8@4315_600","Maltraverso (Verso Pogg:)","43.4379967282485","11.1470406009077","8@4315"
"8@4316_600","Colle Opp.Conc.Fiat","43.446152398178","11.1495817591454","8@4316"
"8@4319_600","Campostaggia","43.4483882585975","11.1483464130246","8@4319"
"8@4322_600","Colle V.Elsa  Distr.Esso","43.4317937058834","11.1362903200609","8@4322"
"8@4323_600","Colle V.Elsa  Distr.Api","43.426330611347","11.1260332834992","8@4323"
"8@4334_600","Loc. Vallebuona  Dir. Colle Val D'Elsa","43.4314782543881","11.1318025386857","8@4334"
"8@4335_600","Loc. Vallebuona Direzione Poggibonsi","43.4288274828808","11.1266198910551","8@4335"
"8@4560_600","Colle V.Elsa (V.Bilenchi)","43.422456087162","11.1277468938159","8@4560"
"8@5436_600","V.Trento Davanti M.P.S.","43.4669785747935","11.1479134060389","8@5436"
"8@5512_600","V.Senese N.Civ.90-","43.4640720652611","11.15400606412","8@5512"
"8@5514_600","Romituzzo Esseeffe-","43.4616547260085","11.1582514042862","8@5514"
"8@5546_600","Calcinaia Opp.Scuola Ronc","43.4563956455205","11.1558550328449","8@5546"
"8@5549_600","Romituzzo","43.4620376734099","11.1580416570367","8@5549"
"8@5551_600","V.Senese N.Civ.139-","43.4641578154293","11.1540091100931","8@5551"
"8@5777_600","Firenze Bottai","43.7268046823992","11.2245962537637","8@5777"
"8@5783_600","Firenze P.Prato Lato P.V.","43.7776045524104","11.2395671171522","8@5783"
"8@5786_600","Bottai Ingr.A1","43.7244451942558","11.2251933361617","8@5786"
"8@5787_600","Bottai Ingr.A1","43.7238248465942","11.22511946209","8@5787"
"8@5792_600","Firenze Bottai","43.7267354825573","11.2244787241024","8@5792"
"8@5931_600","Cappuccini (Pian Del Casone)","43.4166158270826","11.1471995925215","8@5931"
"8@5932_600","Cappuccini (Pian Del Casone)","43.4166198669522","11.1474207105777","8@5932"
"8@6001_600","Poggibonsi Salceto Rotond","43.4674993616418","11.1545036949784","8@6001"
"8@6029_600","Poggibonsi Rotatoria Salceto","43.4676206660341","11.1543708425403","8@6029"
"8@FI_001_600","Autostazione Firenze","43.7758626098267","11.2465182218479","8@FI_001"
"8@FI_002_600","Porta Al Prato","43.7776106713345","11.2381638261033","8@FI_002"
"8@FI_005_600","Porta Romana","43.7605834750207","11.2414078461652","8@FI_005"
"8@FI_006_600","Porta Romana_V","43.7609971710664","11.2414820568908","8@FI_006"
"8@FI_008_600","Galluzzo","43.7359959989979","11.2248266732688","8@FI_008"
"8@FI_020_600","Piazza Tasso","43.767011596066","11.2401009647976","8@FI_020"
"8@FI_021_600","Piazza Tasso_V","43.7671206950855","11.240294998911","8@FI_021"
"8@FI_025_600","De Vanni","43.7742755556286","11.2322437015894","8@FI_025"
"8@FI_036_600","Le Due Strade","43.7498660275156","11.235651163076","8@FI_036"
"8@FI_037_600","Le Due Strade_V","43.7496657762889","11.2356242058933","8@FI_037"
"8@FI_048_600","Galluzzo Agip","43.7385599041956","11.2244623369621","8@FI_048"
"8@FI_049_600","Galluzzo Agip","43.7382979157053","11.2246280357976","8@FI_049"
"8@FI_152_600","Galluzzo Via Volterrana","43.7361079734761","11.2232686708694","8@FI_152"
"8@FI_153_600","Via Senese_V","43.7581391326147","11.2409569379626","8@FI_153"
"8@FI_156_600","Cavallotti","43.7730231066115","11.2351892371784","8@FI_156"
"8@FI_160_600","Via Senese","43.7573221195549","11.2405042139017","8@FI_160"
"8@MTR003_600","Colonna Di Monteriggioni","43.3935464753155","11.2184871399132","8@MTR003"
"8@PGB001_600","Poggibonsi Fs","43.4679239003402","11.1487772896602","8@PGB001"
"8@PGB004_600","Poggibonsi-Esso","43.4683345303771","11.153499561275","8@PGB004"
"8@PGB017_600","Poggibonsi Scuole Roncalli","43.456577726863","11.1552570992571","8@PGB017"
"8@PGB451_600","Bivio S.Lucchese","43.453020738792","11.1519618338945","8@PGB451"
"8@USC01_600","Uscita Acquacalda","43.3386850162918","11.2933595655582","8@USC01"
"9@A0005_600","Arezzo Terminal","43.4623506439799","11.8752121276048","9@A0005"
"9@A0009_600","Via Baldaccio D'Anghiari","43.4652882076539","11.8713587225823","9@A0009"
"9@A000C_600","Viale Cittadini","43.4621779938335","11.8727729411443","9@A000C"
"9@A000G_600","Via Veneto 66/A","43.4584943872845","11.8747820448919","9@A000G"
"9@A000M_600","Via Veneto 126 - Saione","43.4565104247391","11.8724014451202","9@A000M"
"9@A000U_600","Via Veneto 220 Opp Pallanca","43.4532791574119","11.8684170980361","9@A000U"
"9@A0011_600","Via Romana 60 Opp Chiesa San Marco","43.4510538482489","11.8656022348813","9@A0011"
"9@A001M_600","La Mossa","43.4422373793141","11.8545740849199","9@A001M"
"9@A001Q_600","Olmo Palazzini","43.4373269855493","11.8514150501551","9@A001Q"
"9@A0088_600","Olmo Palazzini","43.4373412760726","11.8515639906102","9@A0088"
"9@A008D_600","La Mossa","43.4427380708334","11.8553785903262","9@A008D"
"9@A008V_600","Via Romana 68 - Chiesa San Marco","43.4508134251861","11.8654703793188","9@A008V"
"9@A0090_600","Via Veneto 211 - Pallanca","43.453004092841","11.8682557798857","9@A0090"
"9@A009D_600","Via Veneto - Distributore Agip","43.4554495796454","11.8712635615324","9@A009D"
"9@A01X1_600","Via Xxv Aprile 44","43.4578663005791","11.8811299793144","9@A01X1"
"9@A0Z05_600","Ripa Dell'Olmo","43.4314071348634","11.8418339269972","9@A0Z05"
"9@A0Z0I_600","Ripa Olmo - San Zeno","43.4269971312149","11.8335087556718","9@A0Z0I"
"9@A0Z68_600","Ripa Olmo - San Zeno","43.4272762817645","11.8343543114315","9@A0Z68"
"9@A0Z6N_600","Ripa Dell'Olmo","43.4317297563013","11.8422567363465","9@A0Z6N"
"9@BC009_600","Ambra Ristorante","43.4180743539591","11.6086490186101","9@BC009"
"9@BC010_600","Ambra Di Fr. Ristorante","43.4179539422385","11.6086897950217","9@BC010"
"9@BC031_600","Bv. Capannole","43.4426987255304","11.6230905556106","9@BC031"
"9@BC032_600","Bv. Capannole","43.4428016314537","11.6234419270052","9@BC032"
"9@BC069_600","Ambra Scuola Elementare","43.4120653015167","11.6000591524088","9@BC069"
"9@BC070_600","Ambra Di Fr. Scuola Elementare","43.4117666070155","11.5999569086173","9@BC070"
"9@BC222_600","Badia Agnano Sp 18 Di Fronte Al Nc.1","43.4360002234676","11.6526507559499","9@BC222"
"9@BC228_600","Bv. Pietraviva Al Km.14,850","43.3919325908855","11.5800257288741","9@BC228"
"9@BC233_600","Bv. Pietraviva Al Km.14,8","43.391990894283","11.5807576540802","9@BC233"
"9@BC239_600","Badia Agnano Sp 18 Nc.134 (Distributore)","43.4357799262581","11.6535577643234","9@BC239"
"9@BD014_600","Colonna Del Grillo","43.3309487294274","11.5529999865247","9@BD014"
"9@BD015_600","Colonna Del Grillo","43.3309267645704","11.5531504738052","9@BD015"
"9@BD143_600","Colonna Del Grillo","43.3301459182121","11.5538771429966","9@BD143"
"9@BD741_600","Casetta","43.3036441230024","11.427243834942","9@BD741"
"9@BEL17_600","Il Cipressino","43.4954334940606","11.1524412108892","9@BEL17"
"9@BV819_600","Barberino Val D'Elsa Giardini","43.545814547124","11.1751044262809","9@BV819"
"9@BV820_600","Barberino Val D'Elsa","43.5431780121535","11.1728153908828","9@BV820"
"9@BV821_600","Bivio Novoli","43.5402179427408","11.1706295602026","9@BV821"
"9@BV822_600","La Portaccia","43.5299586291766","11.1689353285994","9@BV822"
"9@BV823_600","San Filippo","43.5257334749253","11.1718941135651","9@BV823"
"9@BV824_600","Bivio Cinciano","43.5114935438152","11.1621527422037","9@BV824"
"9@BV825_600","San Martino","43.5011663135743","11.1545840544566","9@BV825"
"9@BV826_600","Cipressino","43.490846694362","11.1508447692796","9@BV826"
"9@BV915_600","Bivio Sant'Appiano","43.4883856941921","11.1504695104539","9@BV915"
"9@EV063_600","Colle V.Elsa (V.Bilenchi)","43.422569070629","11.1278010060167","9@EV063"
"9@EV088_600","Ponte Di Spugna","43.4236446007573","11.1308605615661","9@EV088"
"9@EV089_600","Cristalleria Artistica","43.4198617686946","11.1374664008968","9@EV089"
"9@EV098_600","Bivio Scarna","43.4099010726582","11.1629938523814","9@EV098"
"9@EV099_600","Belvedere","43.4087106331467","11.1647357149594","9@EV099"
"9@EV108_600","Belvedere","43.408745707549","11.1647711748994","9@EV108"
"9@EV109_600","Bivio Scarna","43.4102087903136","11.1626533105019","9@EV109"
"9@EV113_600","Cristalleria Artistica","43.4200440722634","11.1371741313019","9@EV113"
"9@EV114_600","Ponte Di Spugna","43.4237352037245","11.1308721930852","9@EV114"
"9@EV223_600","Belvedere Hotel","43.414822659968","11.1565321302798","9@EV223"
"9@EV224_600","Podere La Segolina","43.4052607539569","11.168777576804","9@EV224"
"9@EV235_600","Podere La Segolina","43.4055823027288","11.1685062469333","9@EV235"
"9@EV236_600","Belvedere Hotel","43.4148923080417","11.1566059947565","9@EV236"
"9@EV312_600","Via Gramsci - Distributore","43.4263923006341","11.1262069153811","9@EV312"
"9@EV314_600","Ponte Dell'Armi","43.433542816751","11.141886198329","9@EV314"
"9@EV323_600","Via Gramsci","43.4261361546656","11.1260384047268","9@EV323"
"9@EV560_600","Colle V.Elsa (V.Bilenchi)","43.422456087162","11.1277468938159","9@EV560"
"9@EV931_600","Cappuccini","43.4166158270826","11.1471995925215","9@EV931"
"9@EV932_600","Cappuccini","43.4166198669522","11.1474207105777","9@EV932"
"9@F0002_600","Stazione Leopolda","43.7777265748945","11.2384886192965","9@F0002"
"9@F0025_600","Via De' Vanni","43.7742819103407","11.2322266302843","9@F0025"
"9@F0131_600","Le Romite","43.7415857096654","11.2248839519992","9@F0131"
"9@F0132_600","Le Romite","43.741472136216","11.2246350545592","9@F0132"
"9@F0155_600","Orti Oricellari","43.7764613712221","11.2458249241272","9@F0155"
"9@F1267_600","Firenze-Via Panciatichi-Carifi","43.8016594526644","11.2312350358416","9@F1267"
"9@F2509_600","Areoporto Di Peretola","43.8010499611186","11.2007861031726","9@F2509"
"9@F2570_600","Guidoni Valdera","43.7972959515198","11.2212776513396","9@F2570"
"9@F2571_600","Via Magellano","43.8004217770312","11.2327541104372","9@F2571"
"9@F3958_600","Via Magellano Ang. Panciatichi","43.8001754584833","11.2331724252494","9@F3958"
"9@F3959_600","Via Eugenio Barsanti","43.7972476577716","11.2257293197753","9@F3959"
"9@F3961_600","Aeroporto Di Peretola","43.8010305760889","11.20248375054","9@F3961"
"9@F3962_600","Firenze Via Barsanti","43.7970997523641","11.2259869717529","9@F3962"
"9@F3986_600","Firenze Piazza Tasso","43.7670481009531","11.2400254242509","9@F3986"
"9@F5640_600","Firenze Via Senese N.52/R","43.7579232794667","11.2407523629582","9@F5640"
"9@F5643_600","Galluzzo","43.7360731963506","11.2231264457825","9@F5643"
"9@F5644_600","Galluzzo","43.7359759513106","11.2247779622309","9@F5644"
"9@F5659_600","Firenze Via Senese N.25/A","43.7581221482666","11.2409415216097","9@F5659"
"9@F5778_600","Firenze Galluzzo","43.7385359337122","11.2246529957478","9@F5778"
"9@F5779_600","Due Strade","43.749519940451","11.2355264929026","9@F5779"
"9@F5780_600","Firenze Porta Romana","43.7613986768118","11.2414250027596","9@F5780"
"9@F5781_600","Piazza Tasso","43.7671566269886","11.2402900044605","9@F5781"
"9@F5782_600","Via Cavallotti","43.7728421897448","11.2350898670451","9@F5782"
"9@F5783_600","Leopolda","43.7772008161596","11.2386522515749","9@F5783"
"9@F5785_600","Firenze Autostazione","43.7759965231791","11.2464288180302","9@F5785"
"9@F5789_600","Firenze Porta Romana","43.7609007391885","11.2413078932021","9@F5789"
"9@F5790_600","Firenze Due Strade","43.7495840005174","11.2352987317417","9@F5790"
"9@F5791_600","Firenze Galluzzo","43.7383965784724","11.2244670290156","9@F5791"
"9@F785D_600","Firenze","43.7759792325093","11.246360489804","9@F785D"
"9@FI126_600","Piazza Enrico Mattei","43.8025760784018","11.2300171116863","9@FI126"
"9@FK018_600","Uscita Firenze Nord","43.831681211773","11.1592377668355","9@FK018"
"9@FK019_600","Firenze Nord Casello A1","43.8315906915596","11.1608442569605","9@FK019"
"9@G0013_600","Grosseto F.S.","42.7684510571034","11.1072475245321","9@G0013"
"9@G0052_600","Senese","42.7676444767762","11.1184697725778","9@G0052"
"9@G0053_600","Senese","42.7665578068925","11.1176644676555","9@G0053"
"9@G0057_600","Senese","42.7772188132505","11.1232297256452","9@G0057"
"9@G0058_600","Senese Ospedale","42.7765395941301","11.1231461255489","9@G0058"
"9@G0143_600","Grosseto Cimabue Pizzetti","42.7564214720751","11.1004717394336","9@G0143"
"9@G0144_600","Grosseto Cimabue Pizzetti","42.7558766354923","11.100272601796","9@G0144"
"9@G0730_600","Oberdan","42.7645922011378","11.1143428140737","9@G0730"
"9@G1025_600","Grosseto Senese Zona Industriale","42.7839676420115","11.1267644156918","9@G1025"
"9@G1026_600","Grosseto Senese Zona Industriale","42.784097946491","11.1271664418246","9@G1026"
"9@G3900_600","Via Tripoli (Edicola)","42.7640518963353","11.114702069777","9@G3900"
"9@IM490_600","Uscita Firenze Impruneta","43.7207916351938","11.2239448594066","9@IM490"
"9@IM491_600","Uscita Firenze Impruneta","43.7208765306122","11.2236585001591","9@IM491"
"9@IM777_600","Firenze Bottai","43.7268046823992","11.2245962537637","9@IM777"
"9@IM792_600","Firenze Bottai","43.7267354825573","11.2244787241024","9@IM792"
"9@LG028_600","Frantoio Cinque Colli","43.2968565490891","11.7431595071907","9@LG028"
"9@LG030_600","Bivio Per Tozzo","43.287270716511","11.7478926926367","9@LG030"
"9@LG031_600","S.P.19 Di Fronte Nc. 55","43.2833750672783","11.7487017003866","9@LG031"
"9@LG036_600","S.P.19 Lucignano Nc. 55","43.2839757895131","11.748432975236","9@LG036"
"9@LG037_600","Bivio Per Tozzo","43.2875635074976","11.7478859153844","9@LG037"
"9@LG039_600","Frantoio Cinque Colli","43.2976771912715","11.7432935652162","9@LG039"
"9@LG190_600","Lucignano Paese","43.2729785012143","11.7442832854312","9@LG190"
"9@LG207_600","Lucignano Paese","43.273037463304","11.744061836003","9@LG207"
"9@LG933_600","Bivio Santa Maria","43.270819531396","11.7330986846889","9@LG933"
"9@LG940_600","Bivio Santa Maria","43.2708600141505","11.7338481091658","9@LG940"
"9@MT003_600","Colonna Di Monteriggioni","43.3936018297542","11.2184450707009","9@MT003"
"9@MT100_600","Sant'Antonio","43.4009934438542","11.1747981525641","9@MT100"
"9@MT101_600","Belvedere - Ingresso 4","43.39905414765","11.1766436083767","9@MT101"
"9@MT103_600","Pian Del Casone","43.3942404455644","11.1853458373148","9@MT103"
"9@MT104_600","Casone","43.3945344743528","11.1846947515126","9@MT104"
"9@MT106_600","Belvedere - Ingresso 4","43.3991077956612","11.1767863004204","9@MT106"
"9@MT107_600","Sant'Antonio","43.4008720188067","11.1750232456132","9@MT107"
"9@MT226_600","Casone Ingresso 17","43.3931245985954","11.1932232015897","9@MT226"
"9@MT227_600","Bivio Strove","43.3930377362734","11.1993835995315","9@MT227"
"9@MT229_600","Pian Del Casone - Superauto","43.3927997885325","11.2115112402653","9@MT229"
"9@MT230_600","Pian Del Casone - Superauto","43.3928391716143","11.2115931755663","9@MT230"
"9@MT231_600","Bivio Strove","43.3930918193339","11.1987440022219","9@MT231"
"9@MT233_600","Pian Del Casone Ingresso 17","43.3932556922978","11.1929606405733","9@MT233"
"9@MT929_600","Il Piccolo Castello","43.392963482264","11.2074771951968","9@MT929"
"9@MT930_600","Strada Della Cerreta","43.3961981893512","11.1804810073263","9@MT930"
"9@MT933_600","Strada Della Cerreta","43.3963024025969","11.1800893610467","9@MT933"
"9@MT934_600","Il Piccolo Castello","43.3928593102519","11.2076285861661","9@MT934"
"9@MX651_600","Bivio Montioni","43.1841717514484","11.2767313153247","9@MX651"
"9@MX913_600","Loc.Casetta Murlo Ss.223 (Mx220)","43.1695861706308","11.2836536119527","9@MX913"
"9@MX914_600","Loc.Casetta Murlo Ss.223 (Mx219)","43.1696379899864","11.2834439515917","9@MX914"
"9@NE006_600","Zona Industriale","43.3384757784241","11.7349493606483","9@NE006"
"9@NE011_600","Monte San Savino - Stazione","43.3318007528445","11.7307504622119","9@NE011"
"9@NE012_600","Monte San Savino - Stazione","43.3316471223662","11.7309813364985","9@NE012"
"9@NE019_600","Ceneraia","43.312166288519","11.744156757561","9@NE019"
"9@NE022_600","Ceneraia","43.3126254583254","11.7443454964913","9@NE022"
"9@NE033_600","Zona Industriale","43.3388177034621","11.7358991528409","9@NE033"
"9@PN085_600","Paganico Piazzale","42.9300047753878","11.2670620337774","9@PN085"
"9@PN091_600","Civitella Marittima Svincolo","42.9960747380389","11.2875212818174","9@PN091"
"9@PN092_600","Civitella Marittima Svincolo","42.9970754886565","11.2889219336954","9@PN092"
"9@PN104_600","Paganico Via Della Stazione","42.9331437140038","11.2739135908687","9@PN104"
"9@PN108_600","Paganico Porta Gorella","42.9324917275197","11.2697243724764","9@PN108"
"9@PN336_600","Civitella Marittima Le Croci","42.9970984653782","11.2852417321056","9@PN336"
"9@PN337_600","Civitella Marittima Le Croci","42.9972588119541","11.2854592888742","9@PN337"
"9@PN338_600","Civitella Marittima Centro","42.9941872955316","11.2817188691971","9@PN338"
"9@PN339_600","Civitella Marittima Cimitero","42.9970612494745","11.2833035886731","9@PN339"
"9@PN530_600","Casale Di Pari Svincolo","43.0524890818296","11.2862810703729","9@PN530"
"9@PN980_600","Paganico (Hotel Pace)","42.9292269107371","11.26593705873","9@PN980"
"9@PR015_600","Salceto Dir Siena","43.4677056837738","11.154111782708","9@PR015"
"9@PR029_600","Salceto","43.4677633162213","11.154183059182","9@PR029"
"9@PR033_600","Salceto Dir Firenze","43.4682131473909","11.1535574328364","9@PR033"
"9@PR085_600","Ospedale Val D'Elsa","43.452558143517","11.1503925761804","9@PR085"
"9@PR086_600","Ospedale Val D'Elsa","43.4525008609429","11.1501829111745","9@PR086"
"9@PR313_600","Castiglioni Basso","43.4317166085889","11.1362674684864","9@PR313"
"9@PR315_600","Maltraverso","43.4379967282485","11.1470406009077","9@PR315"
"9@PR316_600","Campostaggia","43.446152398178","11.1495817591454","9@PR316"
"9@PR319_600","Campostaggia","43.4483882585975","11.1483464130246","9@PR319"
"9@PR322_600","Castiglioni Basso","43.4317937058834","11.1362903200609","9@PR322"
"9@PR462_600","Via Marconi 183","43.4748422298608","11.1468027129306","9@PR462"
"9@PR466_600","Via Montegrappa","43.4704405382459","11.1500519425233","9@PR466"
"9@PR467_600","Via Montegrappa 30","43.4682398070775","11.1521898614586","9@PR467"
"9@PR500_600","Poggibonsi Fs [1]","43.4676187625183","11.1488710198948","9@PR500"
"9@PR512_600","Via Senese - Semaforo","43.4640720652611","11.15400606412","9@PR512"
"9@PR514_600","Romituzzo","43.4616794196465","11.1582820080933","9@PR514"
"9@PR516_600","Roncalli","43.4564566112866","11.1553246073074","9@PR516"
"9@PR546_600","Calcinaia Opp Roncalli","43.4563956455205","11.1558550328449","9@PR546"
"9@PR549_600","Romituzzo","43.4620376734099","11.1580416570367","9@PR549"
"9@PR551_600","Via Senese - Semaforo","43.4641578154293","11.1540091100931","9@PR551"
"9@PR849_600","Colombaio Opposto Edicola","43.46568036671","11.1558915180191","9@PR849"
"9@PR850_600","Colombaio","43.4668469816806","11.1531463284767","9@PR850"
"9@RT138_600","Rapolano-I Piani (Stadio)","43.292644905211","11.6038796073164","9@RT138"
"9@RT139_600","Rapolano-S.Sebastiano","43.2843599153129","11.6049170801255","9@RT139"
"9@RT143_600","Bv. Sentino Dir. Serre","43.265006952327","11.6285844885979","9@RT143"
"9@RT144_600","Bv. Sentino Dir. Rapolano","43.2651821125096","11.6286457495021","9@RT144"
"9@RT147_600","Rapolano-S.Sebastiano","43.2839510952386","11.6051795195029","9@RT147"
"9@RT148_600","Rapolano-I Piani (Opp. Stadio)","43.2928168868764","11.6039663323826","9@RT148"
"9@RT795_600","Serre Parcheggio","43.2595383618998","11.6199671837624","9@RT795"
"9@RT800_600","Rapolano - P.Za Della Repubblica","43.287361004332","11.604573361376","9@RT800"
"9@RT811_600","Rapolano-P.Zza Della Repubblica","43.2871424158389","11.6044155564313","9@RT811"
"9@RT817_600","Bv. Armaiolo","43.2997088098573","11.5978367968654","9@RT817"
"9@S0011_600","Viale Cavour","43.3302416783465","11.3189192243735","9@S0011"
"9@S0013_600","Palazzo Diavoli","43.3323501706003","11.3130476321374","9@S0013"
"9@S0048_600","Palazzo Diavoli","43.332154483924","11.3136853037934","9@S0048"
"9@S0050_600","Cavour","43.3299637040328","11.3193018577316","9@S0050"
"9@S0063_600","Antiporto Camollia","43.3288765396191","11.3219682715798","9@S0063"
"9@S0064_600","Antiporto Camollia","43.3287111004503","11.3220364632482","9@S0064"
"9@S0065_600","Porta Camollia","43.3281107261306","11.3241803355852","9@S0065"
"9@S0066_600","Montluc","43.3270650275885","11.3246877386034","9@S0066"
"9@S0067_600","Montluc","43.3257579751824","11.3252510832393","9@S0067"
"9@S0070_600","Aretina Due Ponti","43.3159880819123","11.3548559837611","9@S0070"
"9@S0073_600","Porta Pispini","43.3171139106722","11.3436956620967","9@S0073"
"9@S0076_600","Porta Ovile","43.3236351339671","11.3339751567054","9@S0076"
"9@S0094_600","Fortezza Medicea","43.322847424831","11.3218037598339","9@S0094"
"9@S0095_600","Veneto","43.3206922140708","11.3226545859983","9@S0095"
"9@S0096_600","San Domenico","43.320276330142","11.326338159034","9@S0096"
"9@S0102_600","Porta Pispini","43.3170799104701","11.3432397757395","9@S0102"
"9@S0105_600","Aretina Due Ponti","43.315914265372","11.3550168919146","9@S0105"
"9@S0120_600","Biagio Di Montluc","43.325799011848","11.3254956163632","9@S0120"
"9@S0121_600","Montluc 18","43.3269722342759","11.3247876768851","9@S0121"
"9@S0123_600","Le Lupe","43.3250983928026","11.3314816858775","9@S0123"
"9@S0135_600","Le Lupe","43.3253785397703","11.33108281786","9@S0135"
"9@S0222_600","Colonna San Marco","43.3099429572838","11.316544044032","9@S0222"
"9@S0245_600","Colonna San Marco","43.3102039453817","11.3171058609485","9@S0245"
"9@S0260_600","Fontebecci","43.3423378709014","11.305879001451","9@S0260"
"9@S0262_600","Torre Fiorentina","43.3368925586163","11.3075532759901","9@S0262"
"9@S0275_600","Nazario Sauro","43.3253069402241","11.3247828436224","9@S0275"
"9@S0299_600","Policlinico Le Scotte","43.3428854207623","11.3266892290087","9@S0299"
"9@S0373_600","Nazario Sauro","43.325220126927","11.3249783430728","9@S0373"
"9@S0380_600","Torre Fiorentina","43.3371165571656","11.3074651744377","9@S0380"
"9@S0382_600","Fontebecci","43.3425497117788","11.3060319800865","9@S0382"
"9@S0384_600","Porta Ovile","43.3236100291679","11.3333039017323","9@S0384"
"9@S0730_600","Bivio Europa","43.3089676289397","11.3613806760785","9@S0730"
"9@S0769_600","Bivio Europa","43.3070772718394","11.3631169427337","9@S0769"
"9@S0980_600","Presciano Muratori","43.2970869741782","11.4026686051481","9@S0980"
"9@S0981_600","Casone","43.314114403971","11.3583643859838","9@S0981"
"9@S0982_600","Casone","43.3131028569606","11.3588546088456","9@S0982"
"9@S0983_600","Via Fiorentina","43.3350458371733","11.3088058665032","9@S0983"
"9@S0984_600","Via Fiorentina","43.3341144380669","11.3098134431901","9@S0984"
"9@S2000_600","Siena-Via Tozzi","43.3228438476229","11.3276958435147","9@S2000"
"9@S2369_600","Rinaldo Franci","43.3237849806479","11.3248936143373","9@S2369"
"9@S3987_600","Risalita San Francesco","43.3234541624797","11.3358129760217","9@S3987"
"9@S3988_600","Risalita San Francesco","43.3232391271914","11.3360914713348","9@S3988"
"9@S5002_600","Due Ponti","43.315911489762","11.3563357440984","9@S5002"
"9@ST189_600","Rigomagno Stazione","43.2569588341501","11.7067604309522","9@ST189"
"9@ST208_600","Rigomagno","43.2571031684255","11.7065588800603","9@ST208"
"9@SV099_600","Montioni","43.1837589424497","11.2766299572291","9@SV099"
"9@TR286_600","Tavarnelle","43.5641885271574","11.1747501265966","9@TR286"
"9@TR810_600","Ponte Nuovo","43.5927693613129","11.1968710082145","9@TR810"
"9@TR812_600","Romita","43.5812211793033","11.1878815708526","9@TR812"
"9@TR813_600","Capaccia","43.5732169252697","11.1835122709252","9@TR813"
"9@TR814_600","Voltaccia","43.5698223008648","11.1810142358678","9@TR814"
"9@TR815_600","Bivio San Donato","43.5656554885373","11.1790291370842","9@TR815"
"9@TR816_600","Tavarnelle","43.5617823155872","11.1714470571267","9@TR816"
"9@TR817_600","S.S.Cassia Km.265","43.5563208715928","11.1719447653445","9@TR817"
"9@TR818_600","S.S.Cassia Km. 264.4","43.5534809048956","11.1734641094896","9@TR818"
"9@TR939_600","Tavarnelle","43.5589253129229","11.1690245874451","9@TR939"
"9@TR993_600","Tavarnelle Via Mocale","43.5569202099131","11.1704922750118","9@TR993"
"9@USC01_600","Uscita Acquacalda","43.3387648469269","11.2934556929821","9@USC01"
"9@VD001_600","Pieve Al Toppo Banca Toscana","43.4106140171626","11.7993559481502","9@VD001"
"9@VD006_600","Tegoleto","43.3928647792662","11.7862501952298","9@VD006"
"9@VD007_600","Tegoleto","43.3927536855442","11.7862994694326","9@VD007"
"9@VD015_600","Spoiano","43.3705238052425","11.765121176599","9@VD015"
"9@VD018_600","Ss.73 Spoiano Al Km.128,300","43.3649678243156","11.758067089935","9@VD018"
"9@VD019_600","Ss.73 Spoiano Al Km.128,350","43.3646807943914","11.7582083389499","9@VD019"
"9@VD020_600","Ss.73 Spoiano Centro Al Km.129,350","43.3706528833397","11.7655543323196","9@VD020"
"9@VD030_600","Pieve Al Toppo Banca Toscana","43.4106324929793","11.7996455503527","9@VD030"
"9@VD031_600","Via Della Piscina (Circolo Arci)","43.4081385797636","11.7952266836191","9@VD031"
"9@VD033_600","S.C. Dei Boschi Nc.111","43.4063608231248","11.7900118217281","9@VD033"
"9@VD034_600","S.C.Dei Boschi Al Nc. 120","43.4062533032085","11.7896583820278","9@VD034"
"9@VD054_600","Via Della Piscina (Simply)","43.4082030209532","11.795536913069","9@VD054"
"9@VD129_600","S.Comunale Dei Boschi Cimitero","43.4080475379136","11.7688247766968","9@VD129"
"9@VD130_600","S.C.Dei Boschi Cimitero","43.4079642633374","11.768731444604","9@VD130"
"9@VD221_600","Bv. Per Civitella Sp 21","43.4221550442629","11.7293990192364","9@VD221"
"9@VD240_600","Bv. Per Civitella Sp 21","43.4219643488476","11.7287126549068","9@VD240"
"9@VH256_600","La Fornace","43.6099130337937","11.1929708399552","9@VH256"
"9@VH454_600","Bargino Svincolo Supestrada","43.6265881803826","11.1839738425801","9@VH454"
"9@VH458_600","Bargino Podere Paladina","43.620385942101","11.1872750678401","9@VH458"
"9@VH807_600","Bargino","43.6163063997402","11.190022684053","9@VH807"
"9@VH808_600","S.S.Cassia Km. 272.9","43.603723698374","11.1952209474788","9@VH808"
"9@VH809_600","L'Olmo","43.6005356911311","11.1974815295415","9@VH809"
"9@VH811_600","S.S.Cassia","43.594781639279","11.2018609125858","9@VH811"
"9@ZC068_600","Via Di' Prato","43.8528388884566","11.1635717401933","9@ZC068"
"9@ZC111_600","Via Einstein Campi Bisenzio","43.8406672893462","11.1499663864293","9@ZC111"
