stop_id,stop_name,stop_lat,stop_lon,stop_code
"9@AA044_600","Bivio Campania","43.2924727005451","11.4135408124263","9@AA044"
"9@AA052_600","Piazza Repubblica","43.2907661588879","11.410732805367","9@AA052"
"9@AA054_600","Campania","43.2918660534418","11.4119301507559","9@AA054"
"9@AA055_600","Lauretana","43.2942597554839","11.4102239638393","9@AA055"
"9@AA056_600","Arbia Scalo Bar","43.2949238912714","11.4087717008235","9@AA056"
"9@AA065_600","Campania","43.2918985126534","11.4122481004786","9@AA065"
"9@AA066_600","Lauretana","43.294327573177","11.4104238746265","9@AA066"
"9@AA070_600","Bivio Campania","43.2923890236199","11.4131241926739","9@AA070"
"9@AA451_600","Campo Sportivo","43.2954966962941","11.4048386561913","9@AA451"
"9@AA737_600","Campo Sportivo","43.2954735616675","11.4050095847601","9@AA737"
"9@AA739_600","Arbia Scalo Laterizi","43.2953031121973","11.4086364095696","9@AA739"
"9@AA740_600","Casanova Pansarine","43.3013919952437","11.4240033067969","9@AA740"
"9@AA759_600","Casanova Pansarine","43.3013888303597","11.4237831198367","9@AA759"
"9@AA760_600","Arbia Scalo","43.2956686356749","11.4072875786901","9@AA760"
"9@AA970_600","Cimitero Arbia","43.298259615515","11.4147433396783","9@AA970"
"9@AA971_600","Fornaci","43.2966149481032","11.4107493574694","9@AA971"
"9@AA986_600","Fornaci","43.2965854504154","11.4108501390305","9@AA986"
"9@AA987_600","Cimitero Arbia","43.298213803125","11.4148703503907","9@AA987"
"9@BD085_600","Calleno","43.3591350873878","11.4312774842557","9@BD085"
"9@BD098_600","Clinica Rugani","43.3594040336497","11.3141038307743","9@BD098"
"9@BD315_600","San Piero In Barca","43.3560662075553","11.4385205420664","9@BD315"
"9@BD316_600","Casa Cantoniera","43.3574251387693","11.438585727244","9@BD316"
"9@BD317_600","Casa Cantoniera","43.3575776013629","11.4384199438094","9@BD317"
"9@BD318_600","San Piero In Barca","43.3560187234217","11.43835748668","9@BD318"
"9@BD319_600","San Piero 32","43.3450798173961","11.4356525179163","9@BD319"
"9@BD320_600","San Piero 32","43.3450858579388","11.435550730873","9@BD320"
"9@BD559_600","Acqua Borra","43.3071592136909","11.4261793045524","9@BD559"
"9@BD560_600","Acqua Borra","43.3071497565576","11.4263024700037","9@BD560"
"9@BD703_600","Bocca Degli Abati","43.325984747127","11.4313717948626","9@BD703"
"9@BD704_600","Caspreno","43.3359449982395","11.4319895650772","9@BD704"
"9@BD705_600","Caspreno","43.3359275572648","11.4318867319477","9@BD705"
"9@BD706_600","Bocca Degli Abati","43.3259946288335","11.4312754958553","9@BD706"
"9@BD707_600","Il Bagnaccio","43.3098109378654","11.4228027052382","9@BD707"
"9@BD708_600","Il Bagnaccio","43.3095883998159","11.4231320732103","9@BD708"
"9@BD710_600","Monteaperti Capolinea","43.3285947745579","11.4315816686945","9@BD710"
"9@BD741_600","Casetta","43.3036441230024","11.427243834942","9@BD741"
"9@BD742_600","Sant'Ansano A Dofana","43.3118291135018","11.4248746595095","9@BD742"
"9@BD743_600","Fonte Al Pino","43.3156537642031","11.4284629211882","9@BD743"
"9@BD744_600","Martiri Di Monteaperti","43.3226078221333","11.4307053836379","9@BD744"
"9@BD745_600","Monteaperti","43.3286785798833","11.4322686729913","9@BD745"
"9@BD746_600","Podere Ligure","43.3328154147719","11.4329654815388","9@BD746"
"9@BD747_600","La Fornace","43.3473092351993","11.4375520128874","9@BD747"
"9@BD748_600","Falegnameria","43.3545371313342","11.4381584518297","9@BD748"
"9@BD749_600","Bv.Bossi","43.3585022583395","11.4360576174331","9@BD749"
"9@BD750_600","Bivio Bossi","43.3583749108904","11.4362534134083","9@BD750"
"9@BD751_600","Falegnameria","43.3545351189157","11.438067061714","9@BD751"
"9@BD752_600","La Fornace","43.3473616421773","11.4374842799882","9@BD752"
"9@BD753_600","Podere Ligure","43.3329140926754","11.4329319253974","9@BD753"
"9@BD754_600","Monteaperti","43.328696173922","11.4321781047037","9@BD754"
"9@BD755_600","Martiri Di Monteaperti","43.3225859371741","11.4306294048102","9@BD755"
"9@BD756_600","Fonte Al Pino","43.315742137094","11.4283591604155","9@BD756"
"9@BD757_600","Sant'Ansano A Dofana","43.3118664284385","11.4247794729714","9@BD757"
"9@BD758_600","Casetta","43.3036849654759","11.4271649536053","9@BD758"
"9@BD780_600","Piazzale Pianella","43.3566532244039","11.4172717345483","9@BD780"
"9@BD967_600","Bivio Castelnuovo","43.3514984118614","11.4397855945923","9@BD967"
"9@BD968_600","Carpineta","43.3185859217977","11.4292133703784","9@BD968"
"9@BD989_600","Carpineta","43.318596982121","11.4292955490816","9@BD989"
"9@BD990_600","Bivio Castelnuovo","43.3512269851283","11.4400619547234","9@BD990"
"9@GH818_600","Borgo Frastà .","43.3554338066659","11.4212953266579","9@GH818"
"9@MT001_600","Fornacelle Pino","43.3519997989612","11.2775079399085","9@MT001"
"9@MT004_600","Ferrini","43.3444457087399","11.2822429963479","9@MT004"
"9@MT008_600","Repubblica 3","43.3451200024222","11.2815267985222","9@MT008"
"9@MT009_600","Casetta Dell'Acqua","43.3443952799851","11.2854882426717","9@MT009"
"9@MT024_600","Braccio","43.3445576767067","11.300228006793","9@MT024"
"9@MT025_600","San Dalmazio","43.345546942834","11.2941705939949","9@MT025"
"9@MT026_600","Bivio Abbadia","43.3443652734416","11.2893682562075","9@MT026"
"9@MT027_600","Rotatoria Tognazza","43.3441012349514","11.2863333996828","9@MT027"
"9@MT028_600","Fornacelle Parcheggio","43.3492147948785","11.2753594245093","9@MT028"
"9@MT029_600","Fornacelle","43.3487663581355","11.2762602406387","9@MT029"
"9@MT031_600","San Martino","43.3482799891404","11.2801497313504","9@MT031"
"9@MT033_600","Fornacelle","43.3487038468212","11.2763018702817","9@MT033"
"9@MT034_600","San Martino","43.3479784751804","11.2807394171338","9@MT034"
"9@MT035_600","Rotatoria Tognazza","43.3441017777512","11.2854056713519","9@MT035"
"9@MT036_600","Bivio Abbadia","43.3443184062514","11.2895953477965","9@MT036"
"9@MT038_600","Braccio","43.3444908819197","11.3002719945971","9@MT038"
"9@MT074_600","Via Cassia 2","43.3450231225587","11.2969488261571","9@MT074"
"9@MT075_600","Cassia 2","43.3452004866382","11.2963580214343","9@MT075"
"9@MT134_600","Fontebecci Chiantibanca","43.3436393322485","11.3052755352838","9@MT134"
"9@MT188_600","Montarioso Seminario","43.3506928754","11.3112976235175","9@MT188"
"9@MT193_600","Fontebecci Chiantibanca","43.3435442187976","11.3053350996976","9@MT193"
"9@MT254_600","Hotel Anna","43.3451026018199","11.3071668444259","9@MT254"
"9@MT271_600","Rotatoria Montarioso","43.3472057654558","11.3088482209843","9@MT271"
"9@MT279_600","Giovanni Paolo Ii","43.3444125646133","11.3058755250984","9@MT279"
"9@MT280_600","Montecelso 8","43.345603471945","11.3052801918796","9@MT280"
"9@MT294_600","Belverde","43.3466328076943","11.3051644512481","9@MT294"
"9@MT304_600","Via Sardegna","43.3452273622214","11.3065751866229","9@MT304"
"9@MT305_600","Belverde Scuola","43.3486566326799","11.3039190616635","9@MT305"
"9@MT306_600","La Tognazza","43.3439767661966","11.2838846314547","9@MT306"
"9@MT307_600","La Tognazza","43.3438521136041","11.2831336888973","9@MT307"
"9@MT321_600","Bivio San Martino","43.3446860690972","11.2807656188662","9@MT321"
"9@MT326_600","Repubblica","43.3468575056198","11.2815964581302","9@MT326"
"9@MT327_600","Via Del Pozzo","43.3461341339784","11.280971816272","9@MT327"
"9@MT338_600","Montecelso","43.3454543355797","11.3039998505736","9@MT338"
"9@MT361_600","Bivio San Martino","43.3444760099442","11.2807924182023","9@MT361"
"9@MT374_600","Montecelso 8","43.3455502527966","11.3052938454093","9@MT374"
"9@MT426_600","Montecelso Banca","43.3442873504155","11.3056909082661","9@MT426"
"9@MT431_600","Via Val D'Aosta","43.3480362734395","11.3055615689139","9@MT431"
"9@MT595_600","Bivio Vico Alto","43.3488363503988","11.3121693961835","9@MT595"
"9@MT618_600","Str. Chiantigiana 47","43.3564084729187","11.3146078541241","9@MT618"
"9@MT620_600","Montarioso","43.3505286731267","11.3124714314708","9@MT620"
"9@MT621_600","Uopini Civico 8","43.3479350963262","11.2984732186662","9@MT621"
"9@MT652_600","Uopini Tabernacolo","43.3521872689928","11.2971773907096","9@MT652"
"9@MT653_600","Uopini","43.350886400768","11.298296650838","9@MT653"
"9@MT654_600","Via Uopini","43.3493716156504","11.2983068463382","9@MT654"
"9@MT655_600","V. Maestri Del Lavoro","43.3517704918399","11.2952226821338","9@MT655"
"9@MT920_600","Giovanni Xxiii","43.3488598444043","11.3089088518375","9@MT920"
"9@MT939_600","Bivio Rinfusola","43.3538509515319","11.3129447391058","9@MT939"
"9@MT940_600","Montarioso","43.3529735460596","11.3116965150034","9@MT940"
"9@MT941_600","Montarioso","43.3530677516258","11.3118200266023","9@MT941"
"9@MT942_600","Bivio Rinfusola","43.353737282885","11.3128709512239","9@MT942"
"9@S0001_600","Piazza Gramsci","43.3227789950397","11.3278714857243","9@S0001"
"9@S0002_600","Campansi","43.3251770118772","11.3281542302738","9@S0002"
"9@S0003_600","Piazza Del Sale","43.3242541584868","11.328540142414","9@S0003"
"9@S0004_600","Garibaldi","43.3247413294125","11.3306187635284","9@S0004"
"9@S0005_600","Vecchia Stazione","43.3259595900839","11.3319384146938","9@S0005"
"9@S0006_600","Mazzini 58","43.3277861063192","11.3292997086639","9@S0006"
"9@S0007_600","Mazzini 76","43.329451320721","11.3269449381395","9@S0007"
"9@S0008_600","Ferrovia","43.331558761069","11.3226242028564","9@S0008"
"9@S0009_600","Viale Sclavo","43.3326865563019","11.3179955402137","9@S0009"
"9@S0010_600","Caduti Di Vicobello","43.3307846203697","11.3187906457676","9@S0010"
"9@S0011_600","Viale Cavour","43.3302416783465","11.3189192243735","9@S0011"
"9@S0012_600","Bivio Montebello","43.3314093822087","11.3165226777057","9@S0012"
"9@S0013_600","Palazzo Diavoli","43.3323501706003","11.3130476321374","9@S0013"
"9@S0014_600","Uncinello","43.33550819868","11.307708679211","9@S0014"
"9@S0015_600","Cittadini","43.3367815150323","11.3054257440103","9@S0015"
"9@S0016_600","Tolomei","43.3372601633178","11.3017844802182","9@S0016"
"9@S0017_600","Tolomei 74","43.3362807975926","11.2999902779314","9@S0017"
"9@S0018_600","Acquacalda","43.3381821138696","11.2979611551821","9@S0018"
"9@S0019_600","Aldobrandino","43.3402235326214","11.2976690818478","9@S0019"
"9@S001B_600","Autostazione [2]","43.3318428722286","11.3251826808772","9@S001B"
"9@S001C_600","Autostazione [3]","43.3318956458964","11.325011191699","9@S001C"
"9@S001D_600","Autostazione [4]","43.3319441787289","11.3248520696634","9@S001D"
"9@S001E_600","Autostazione [5]","43.3319976868372","11.3246742519792","9@S001E"
"9@S001G_600","Autostazione [7]","43.3321034010216","11.3243261174529","9@S001G"
"9@S0020_600","Baviera","43.3402191930071","11.2989150067872","9@S0020"
"9@S0021_600","Province 17","43.3399464784722","11.3015989455693","9@S0021"
"9@S0022_600","Province 1","43.3413464576082","11.3036582679061","9@S0022"
"9@S0023_600","Province","43.3422921159569","11.3049465877017","9@S0023"
"9@S0037_600","San Dalmazio","43.3454121339307","11.2938484448638","9@S0037"
"9@S0038_600","Fornace Vecchia Est","43.2965536751997","11.3410588923225","9@S0038"
"9@S0039_600","Province Parcheggio","43.342516417377","11.3049014129365","9@S0039"
"9@S0040_600","Province 2","43.3413346723228","11.3034432901112","9@S0040"
"9@S0041_600","Province 46","43.3399234366188","11.3012541406971","9@S0041"
"9@S0042_600","Baviera","43.3404163709756","11.2989603226717","9@S0042"
"9@S0043_600","Aldobrandino","43.339994551028","11.2976067800455","9@S0043"
"9@S0044_600","Acquacalda","43.338127029918","11.297839172203","9@S0044"
"9@S0045_600","Tolomei","43.3371828207346","11.3019677025563","9@S0045"
"9@S0046_600","Cittadini","43.3367647348267","11.305913968119","9@S0046"
"9@S0047_600","Uncinello","43.3353476978417","11.3079162456106","9@S0047"
"9@S0048_600","Palazzo Diavoli","43.332154483924","11.3136853037934","9@S0048"
"9@S0049_600","Bivio Montebello","43.3311588131942","11.3168018987285","9@S0049"
"9@S0050_600","Cavour","43.3299637040328","11.3193018577316","9@S0050"
"9@S0051_600","Caduti Di Vicobello","43.3311223993542","11.3182068862411","9@S0051"
"9@S0052_600","Sclavo","43.3324829059174","11.3183852151812","9@S0052"
"9@S0053_600","Ferrovia","43.3310889568599","11.3225696574253","9@S0053"
"9@S0054_600","Mazzini","43.3290428365396","11.3273352173594","9@S0054"
"9@S0055_600","Mazzini 73","43.3275897408485","11.329263710375","9@S0055"
"9@S0056_600","Vecchia Stazione","43.325814455097","11.3318716865458","9@S0056"
"9@S0057_600","Garibaldi","43.3248361848031","11.3305150932709","9@S0057"
"9@S0058_600","Piazza Del Sale","43.3241142232393","11.3282887512912","9@S0058"
"9@S0059_600","Gazzani","43.3243268276176","11.3271204251088","9@S0059"
"9@S0060_600","Boninsegna 19","43.3245279019707","11.3379054612387","9@S0060"
"9@S0061_600","Mentana","43.3315610707171","11.3130824260609","9@S0061"
"9@S0062_600","Porta Camollìa","43.3282202046149","11.3240123828882","9@S0062"
"9@S0063_600","Antiporto Camollìa","43.3288765396191","11.3219682715798","9@S0063"
"9@S0064_600","Antiporto Camollìa","43.3287111004503","11.3220364632482","9@S0064"
"9@S0065_600","Porta Camollìa","43.3281107261306","11.3241803355852","9@S0065"
"9@S0066_600","Montluc","43.3270650275885","11.3246877386034","9@S0066"
"9@S0067_600","Montluc","43.3257579751824","11.3252510832393","9@S0067"
"9@S0068_600","Fratelli Cadorna","43.3237148559531","11.3247555232072","9@S0068"
"9@S0070_600","Aretina Due Ponti","43.3159880819123","11.3548559837611","9@S0070"
"9@S0071_600","Aretina 127","43.3152282111053","11.3520489007245","9@S0071"
"9@S0072_600","Aretina 65","43.3150946169187","11.3473427331112","9@S0072"
"9@S0073_600","Porta Pispini","43.3171139106722","11.3436956620967","9@S0073"
"9@S0074_600","Vivaldi","43.3180169160489","11.3423546183436","9@S0074"
"9@S0075_600","Peruzzi","43.3190046999188","11.3394374736965","9@S0075"
"9@S0076_600","Porta Ovile","43.3236351339671","11.3339751567054","9@S0076"
"9@S0080_600","Quinto Settano","43.3359714485833","11.3055180664636","9@S0080"
"9@S0081_600","Alessandro Piccolomini","43.3354821534931","11.3028340051242","9@S0081"
"9@S0082_600","Colombini 60","43.3343457771386","11.3002611144965","9@S0082"
"9@S0083_600","Dante 3","43.3330212904488","11.2981071468779","9@S0083"
"9@S0084_600","Via Dante","43.3320286975051","11.2961885464424","9@S0084"
"9@S0085_600","Bivio Cavalcanti","43.3308889989324","11.2965094531799","9@S0085"
"9@S0086_600","Cozzarelli 8","43.3189033362675","11.342593397542","9@S0086"
"9@S0087_600","Piazza Petriccio","43.331805358588","11.3004048464654","9@S0087"
"9@S0088_600","Bivio Cavalcanti","43.3313429719976","11.2969492699681","9@S0088"
"9@S0089_600","Via Dante","43.3319844589411","11.2966516474697","9@S0089"
"9@S0090_600","Dante 3","43.3331070910837","11.2983090982376","9@S0090"
"9@S0091_600","Colombini","43.334348012324","11.3004945789697","9@S0091"
"9@S0092_600","Alessandro Piccolomini","43.335469203971","11.3030164484005","9@S0092"
"9@S0093_600","Quinto Settano","43.3358340156628","11.305367800083","9@S0093"
"9@S0094_600","Fortezza Medicea","43.322847424831","11.3218037598339","9@S0094"
"9@S0095_600","Veneto","43.3206922140708","11.3226545859983","9@S0095"
"9@S0096_600","San Domenico","43.320276330142","11.326338159034","9@S0096"
"9@S0099_600","Raimondo Da Capua","43.3361612542495","11.2992949776603","9@S0099"
"9@S0100_600","Peruzzi","43.3189099033726","11.3393134749448","9@S0100"
"9@S0101_600","Vivaldi","43.3181489785213","11.3422065330864","9@S0101"
"9@S0102_600","Porta Pispini","43.3170799104701","11.3432397757395","9@S0102"
"9@S0103_600","Aretina 100","43.3150916456796","11.3471410040247","9@S0103"
"9@S0104_600","Aretina 158","43.315213203378","11.3523144287581","9@S0104"
"9@S0105_600","Aretina Due Ponti","43.315914265372","11.3550168919146","9@S0105"
"9@S0107_600","Esterna Fontebranda 35","43.315892655174","11.3207449227789","9@S0107"
"9@S0108_600","Avignone Giardini","43.3304477462208","11.3152160477088","9@S0108"
"9@S0109_600","Luglie 6","43.306304064144","11.3401072105579","9@S0109"
"9@S0110_600","Luglie","43.3032696467149","11.3463032154034","9@S0110"
"9@S0111_600","Avignone","43.3292126366959","11.3186423781133","9@S0111"
"9@S0112_600","Pisacane Istituti Scolastici","43.3263414307717","11.3176560787241","9@S0112"
"9@S0113_600","Pisacane","43.3245080213695","11.318886002916","9@S0113"
"9@S0114_600","Fonti Di Pescaia","43.3251316694186","11.3218524434914","9@S0114"
"9@S0115_600","Battisti","43.3235277328995","11.3216904431762","9@S0115"
"9@S0116_600","Montesanto","43.3221190553488","11.3200755876657","9@S0116"
"9@S0117_600","Residenza 24 Maggio","43.32026362551","11.3198251455106","9@S0117"
"9@S0118_600","24 Maggio 19","43.3183046527274","11.3219518112762","9@S0118"
"9@S0119_600","Fruschelli","43.3194881484026","11.3232016226335","9@S0119"
"9@S0120_600","Biagio Di Montluc","43.325799011848","11.3254956163632","9@S0120"
"9@S0121_600","Montluc 18","43.3269722342759","11.3247876768851","9@S0121"
"9@S0122_600","Don Minzoni","43.3268396036859","11.327544470959","9@S0122"
"9@S0123_600","Le Lupe","43.3250983928026","11.3314816858775","9@S0123"
"9@S0124_600","Lippo Memmi","43.3259239530591","11.3327009799754","9@S0124"
"9@S0125_600","Valdambrino 4","43.325249562572","11.3349760522945","9@S0125"
"9@S0126_600","Lorenzetti","43.3237743876465","11.3388800481129","9@S0126"
"9@S0127_600","Boninsegna 56","43.3223959394441","11.3415070971673","9@S0127"
"9@S0128_600","Massetana Distributore","43.302602022254","11.3240408353453","9@S0128"
"9@S0129_600","Ravacciano","43.3219128084598","11.3430013035529","9@S0129"
"9@S0130_600","Boninsegna 53","43.3225624628831","11.3413557608292","9@S0130"
"9@S0131_600","Bivio Lippo Vanni","43.3238178786529","11.3390828160332","9@S0131"
"9@S0132_600","Bivio Maitani","43.3256085584164","11.3355180429509","9@S0132"
"9@S0133_600","Simone Martini","43.3254026401331","11.3336219266098","9@S0133"
"9@S0135_600","Le Lupe","43.3253785397703","11.33108281786","9@S0135"
"9@S0136_600","Don Minzoni","43.3269464379672","11.3274979845485","9@S0136"
"9@S0137_600","Via Tozzi","43.3220047464189","11.3278069726307","9@S0137"
"9@S0138_600","Curtatone","43.3207787584217","11.3271078845189","9@S0138"
"9@S0139_600","Pannilunghi","43.3198648886888","11.3227934848714","9@S0139"
"9@S0140_600","24 Maggio","43.3185282198795","11.3218278845167","9@S0140"
"9@S0141_600","Residenza 24 Maggio","43.3204066487301","11.3199253016732","9@S0141"
"9@S0142_600","Montesanto","43.3221017707969","11.320248449363","9@S0142"
"9@S0143_600","Battisti","43.3238644301562","11.3220965700627","9@S0143"
"9@S0144_600","Fonti Di Pescaia","43.3251772394127","11.3221002278967","9@S0144"
"9@S0145_600","Pisacane","43.3247114616262","11.3195276683534","9@S0145"
"9@S0146_600","Pisacane Istituti Scolastici","43.3267519780115","11.3178134080879","9@S0146"
"9@S0147_600","Mameli 46","43.3297303321833","11.3182047308496","9@S0147"
"9@S0148_600","Mameli 82","43.3312996692186","11.3153025733655","9@S0148"
"9@S0149_600","Poggiarello","43.3281980752161","11.3148472474217","9@S0149"
"9@S0150_600","Mentana Di Sotto","43.3307684429184","11.3144748525745","9@S0150"
"9@S0151_600","Bivio Vestri","43.3290425718117","11.3153271829467","9@S0151"
"9@S0152_600","Bivio Custoza","43.3292594146331","11.314512248778","9@S0152"
"9@S0153_600","Mentana Hotel Garden","43.3306038263713","11.3130523703512","9@S0153"
"9@S0154_600","Luglie 6","43.3063159994044","11.3401663565779","9@S0154"
"9@S0155_600","Ponte Di Romana","43.316899493627","11.3378027683139","9@S0155"
"9@S0156_600","Via Roma","43.3152256287138","11.3396824574201","9@S0156"
"9@S0157_600","Bivio Gigli","43.3114595595174","11.3392876002698","9@S0157"
"9@S0158_600","Piccolomini","43.3089643667729","11.3389610391297","9@S0158"
"9@S0159_600","Valli","43.3063941861758","11.3389372791211","9@S0159"
"9@S0160_600","Bellemme","43.3030334759011","11.3374107827215","9@S0160"
"9@S0161_600","Bivio Arbiola","43.3000970276838","11.3371877711671","9@S0161"
"9@S0162_600","Limite Del Suburbio","43.2980222051527","11.3380116345095","9@S0162"
"9@S0163_600","Fornace Vecchia","43.2962783088185","11.3407257157886","9@S0163"
"9@S0164_600","Cassia Sud Distributore","43.2929779363094","11.3433588914883","9@S0164"
"9@S0165_600","Bivio Tressa","43.2890546043685","11.3439197620221","9@S0165"
"9@S0166_600","Cassia Sud 37","43.292645368119","11.3436027560598","9@S0166"
"9@S0167_600","Bivio Cipresso","43.2996942016565","11.3286091382259","9@S0167"
"9@S0168_600","Massetana Negozi","43.3041864534357","11.3220800204266","9@S0168"
"9@S0169_600","Massetana Romana","43.3055109787541","11.3190802635303","9@S0169"
"9@S0171_600","Bivio Giuggiolo","43.3093283769742","11.3201918313027","9@S0171"
"9@S0172_600","San Marco 22","43.3099969064426","11.3263073834393","9@S0172"
"9@S0173_600","Porta San Marco","43.3118867423889","11.3247508842993","9@S0173"
"9@S0174_600","Bivio Gigli","43.3166716243305","11.3444977986599","9@S0174"
"9@S0175_600","Cerchia","43.3146759763393","11.3306658258268","9@S0175"
"9@S0176_600","Mattioli","43.3123995311107","11.3324069267065","9@S0176"
"9@S0177_600","Porta Tufi","43.3115390562566","11.3327797990301","9@S0177"
"9@S0178_600","Cimitero","43.3091815035342","11.3318977556364","9@S0178"
"9@S0179_600","Tufi 18","43.3072810744331","11.3307775455944","9@S0179"
"9@S0180_600","Vecchia Tufi","43.3054513796026","11.3293802371032","9@S0180"
"9@S0181_600","Bivio Cipresso","43.3024426739098","11.3299098434857","9@S0181"
"9@S0182_600","Hotel Ai Tufi","43.2980721149472","11.3316086743654","9@S0182"
"9@S0183_600","Parcheggio Tufi 2","43.2958967092973","11.334836374762","9@S0183"
"9@S0184_600","Parcheggio Tufi 2","43.2960294302457","11.3348228576724","9@S0184"
"9@S0186_600","Fornace Vecchia","43.2965324041937","11.3402760606056","9@S0186"
"9@S0187_600","Limite Del Suburbio","43.297826291997","11.338466133612","9@S0187"
"9@S0188_600","Bivio Arbiola","43.3001351434327","11.3372964868256","9@S0188"
"9@S0189_600","Bellemme","43.3031585676302","11.3374447969154","9@S0189"
"9@S0190_600","Valli","43.3065692385175","11.3392006935909","9@S0190"
"9@S0191_600","Piccolomini","43.3087087223839","11.3390455548964","9@S0191"
"9@S0192_600","Bivio Gigli","43.3115422157596","11.3394240643813","9@S0192"
"9@S0194_600","Cozzarelli","43.3192716433575","11.344304440881","9@S0194"
"9@S0195_600","Coroncina Capolinea","43.288915966142","11.3436110957699","9@S0195"
"9@S0196_600","Simone Martini","43.3257865884932","11.3337843853989","9@S0196"
"9@S0197_600","Madonnina Rossa","43.3276711213324","11.3402025209625","9@S0197"
"9@S0198_600","Poggio Ai Pini","43.3293565179999","11.3425316726487","9@S0198"
"9@S0199_600","Bottega Nuova","43.3320378953043","11.3441583536957","9@S0199"
"9@S0200_600","Bivio Le Tolfe","43.3344143079662","11.3448269670252","9@S0200"
"9@S0201_600","Osservanza","43.3354664963122","11.3413533920877","9@S0201"
"9@S0202_600","Istituto Agrario","43.3363914285833","11.3393637066213","9@S0202"
"9@S0203_600","Villa Scacciapensieri","43.3361792224279","11.3366772830436","9@S0203"
"9@S0204_600","Scacciapensieri","43.3364810210839","11.332613207878","9@S0204"
"9@S0205_600","Campeggio","43.3378660267908","11.3293223568121","9@S0205"
"9@S0206_600","Bivio Rossini","43.3382261106256","11.3278817614071","9@S0206"
"9@S0207_600","Via Verdi","43.3373654441147","11.3275176516777","9@S0207"
"9@S0208_600","Malizia 59","43.3350715431415","11.3292607890704","9@S0208"
"9@S0209_600","Malizia 33","43.3316560406576","11.3289334519288","9@S0209"
"9@S0210_600","Malizia 5","43.3316240423986","11.3268183895798","9@S0210"
"9@S0211_600","Via Gabrielli","43.3371792570295","11.2962845231974","9@S0211"
"9@S0212_600","Gabrielli 3","43.3396282746242","11.2962395601924","9@S0212"
"9@S0213_600","Bivio Bargagli","43.3408027538562","11.2972618751614","9@S0213"
"9@S0214_600","Hotel Anna","43.345106093472","11.3073373545219","9@S0214"
"9@S0215_600","Incrocio Chiantigiana","43.3469173432112","11.3096650160595","9@S0215"
"9@S0216_600","Vico Alto","43.3439971030366","11.3105985768546","9@S0216"
"9@S0217_600","Vico Alto Edicola","43.3411568496522","11.312705451342","9@S0217"
"9@S0218_600","Bivio Emilia","43.3393592474979","11.3143754676521","9@S0218"
"9@S0219_600","Vico Alto","43.3372965898337","11.315603065641","9@S0219"
"9@S0220_600","Terminal Pescaia","43.3241951100679","11.3196778778191","9@S0220"
"9@S0221_600","Casone","43.3177178047625","11.3164863562785","9@S0221"
"9@S0222_600","Colonna San Marco","43.3099429572838","11.316544044032","9@S0222"
"9@S0223_600","Strada Massetana","43.3068948964051","11.316996992116","9@S0223"
"9@S0224_600","Massetana Romana","43.3054513575456","11.3189998861222","9@S0224"
"9@S0225_600","Massetana Negozi","43.3041572255354","11.3220105955924","9@S0225"
"9@S0226_600","Porta Laterina","43.314692744697","11.3246239807027","9@S0226"
"9@S0227_600","Esterna Fontebranda 35","43.3157847032637","11.3203542253828","9@S0227"
"9@S0228_600","Tufi 55","43.2992290470207","11.3322754676875","9@S0228"
"9@S0229_600","Bivio Mandorlo","43.3026101625663","11.3297501759644","9@S0229"
"9@S0230_600","Vecchia Dei Tufi","43.3054861784386","11.3295195306899","9@S0230"
"9@S0231_600","Tufi 18","43.3072077254302","11.330802359824","9@S0231"
"9@S0232_600","Cimitero","43.3092412742102","11.3320309864001","9@S0232"
"9@S0233_600","Porta Tufi","43.3115348096839","11.3329878979781","9@S0233"
"9@S0234_600","Mattioli","43.3122030144355","11.332616672618","9@S0234"
"9@S0235_600","Sant'Agostino","43.3147146867453","11.3309002405511","9@S0235"
"9@S0236_600","Via Del Colle","43.3178415218675","11.3192441204541","9@S0236"
"9@S0237_600","Mascagni","43.3153951060535","11.3275646406712","9@S0237"
"9@S0238_600","Due Porte","43.3154605455369","11.327525829896","9@S0238"
"9@S0239_600","Bastianini","43.3146986152859","11.3259821057422","9@S0239"
"9@S0240_600","Monticchiello","43.3188949305747","11.3211196958449","9@S0240"
"9@S0241_600","Pozzo Di San Marco","43.3128104910615","11.3271485560535","9@S0241"
"9@S0242_600","Porta San Marco","43.3119931285177","11.3246998238654","9@S0242"
"9@S0243_600","San Marco 22","43.3099386264826","11.3261271123246","9@S0243"
"9@S0244_600","Bivio Giuggiolo","43.3092698634222","11.3198672980281","9@S0244"
"9@S0245_600","Colonna San Marco","43.3102039453817","11.3171058609485","9@S0245"
"9@S0246_600","Parcheggio Fagiolone","43.3144384207661","11.3178238170583","9@S0246"
"9@S0247_600","Casone","43.3173139715098","11.3168373804916","9@S0247"
"9@S0248_600","Pescaia Alta","43.3242052876856","11.3209455681789","9@S0248"
"9@S0249_600","Vico Alto","43.3372713993839","11.3158198327223","9@S0249"
"9@S0250_600","Bivio Emilia","43.3393404778463","11.314617652245","9@S0250"
"9@S0251_600","Regioni","43.3408038373212","11.3138783133835","9@S0251"
"9@S0252_600","Vico Alto","43.3440724658666","11.3106298118515","9@S0252"
"9@S0253_600","Incrocio Chiantigiana","43.34709706347","11.3095937362398","9@S0253"
"9@S0255_600","Bivio Bargagli","43.3408307929602","11.2970136139336","9@S0255"
"9@S0256_600","Gabrielli 6","43.3394857975331","11.29611119685","9@S0256"
"9@S0257_600","Santa  Lucia","43.3139326421432","11.3287063773945","9@S0257"
"9@S0258_600","Piazza Calabria","43.3427326661652","11.3128915041944","9@S0258"
"9@S0259_600","Parcheggio Palasport","43.333282717075","11.3175513511909","9@S0259"
"9@S0260_600","Fontebecci","43.3423378709014","11.305879001451","9@S0260"
"9@S0261_600","Lo Stellino","43.3402324996057","11.3058717362802","9@S0261"
"9@S0262_600","Torre Fiorentina","43.3368925586163","11.3075532759901","9@S0262"
"9@S0263_600","Gallori","43.3177850134807","11.3136254820471","9@S0263"
"9@S0264_600","Gallori 30","43.3167345374001","11.3120529208965","9@S0264"
"9@S0265_600","Michelangelo","43.317798319838","11.3122824443054","9@S0265"
"9@S0266_600","Poggio Al Vento","43.3193415062516","11.3134006868633","9@S0266"
"9@S0267_600","Osservatorio","43.3213667441799","11.3129982051895","9@S0267"
"9@S0268_600","Fracassi","43.3241917494667","11.3128925696364","9@S0268"
"9@S0269_600","Custoza","43.3273825177379","11.3118127012048","9@S0269"
"9@S0270_600","Cappuccini","43.331676513085","11.3117020094705","9@S0270"
"9@S0272_600","Lippo Memmi","43.3260067552728","11.333271856081","9@S0272"
"9@S0273_600","Veneto","43.3211038294743","11.3219922386914","9@S0273"
"9@S0274_600","Fortezza Medicea","43.3231153335188","11.3222939608166","9@S0274"
"9@S0275_600","Nazario Sauro","43.3253069402241","11.3247828436224","9@S0275"
"9@S0276_600","Ricasoli 45","43.3270663414671","11.3240961454581","9@S0276"
"9@S0277_600","Liguria","43.3426849124592","11.3117223839847","9@S0277"
"9@S0278_600","Santa Lucia","43.3138704578812","11.3284041134063","9@S0278"
"9@S0279_600","Sperandie","43.3115302538927","11.3270048119832","9@S0279"
"9@S0281_600","San Marco 16","43.3111577500373","11.3263498318679","9@S0281"
"9@S0282_600","San Marco 16","43.3109606645888","11.3265172784854","9@S0282"
"9@S0283_600","Piazzetta Tolomei","43.3355903094151","11.2998633012357","9@S0283"
"9@S0284_600","Xxiv Maggio 90","43.3196498117237","11.3197766227634","9@S0284"
"9@S0285_600","Ciacci 38","43.3178778092682","11.3184761233651","9@S0285"
"9@S0286_600","Piazzetta","43.3192580485909","11.3460205346954","9@S0286"
"9@S0287_600","Piazzetta Colle","43.316230944983","11.3183881983436","9@S0287"
"9@S0288_600","Mencattelli","43.3186019615945","11.3204620999608","9@S0288"
"9@S0289_600","Martiri Di Scalvaia","43.3178200715506","11.3204165458369","9@S0289"
"9@S0290_600","Bivio Scaletta","43.3174093138547","11.3222740857165","9@S0290"
"9@S0291_600","Bonci","43.3181580466323","11.3236145958247","9@S0291"
"9@S0292_600","25 Aprile","43.3209325731324","11.3243006220946","9@S0292"
"9@S0293_600","Piazzetta Tolomei","43.3354626806916","11.2996818403081","9@S0293"
"9@S0294_600","Scotte 4","43.3442522921756","11.3289140452225","9@S0294"
"9@S0295_600","Bracci Coop","43.3321076923172","11.3262000967431","9@S0295"
"9@S0296_600","Bracci","43.3364792017558","11.3254679139586","9@S0296"
"9@S0297_600","Bracci Bivio Orlandi","43.3403495671241","11.3244642314351","9@S0297"
"9@S0298_600","Policlinico Le Scotte","43.3427706295989","11.3265595261134","9@S0298"
"9@S0299_600","Policlinico Le Scotte","43.3428854207623","11.3266892290087","9@S0299"
"9@S0300_600","Mario Bracci","43.3418288607344","11.3249813460704","9@S0300"
"9@S0301_600","Bracci","43.3364414057241","11.3252898263758","9@S0301"
"9@S0302_600","Bivio Giuseppe Pietri","43.3334395916395","11.3255884520176","9@S0302"
"9@S0303_600","Bracci Coop","43.3321185975795","11.3260048858966","9@S0303"
"9@S0306_600","Busseto","43.3193026375282","11.34244103066","9@S0306"
"9@S0309_600","Certosa","43.3107419190887","11.3446856377619","9@S0309"
"9@S0310_600","Linaiolo","43.3122197692381","11.3481288308524","9@S0310"
"9@S0311_600","Il Canto","43.3107566149749","11.350003888808","9@S0311"
"9@S0312_600","Peruzza","43.3092730582235","11.3537962475681","9@S0312"
"9@S0313_600","Certosa 79","43.3093747346104","11.3571863638016","9@S0313"
"9@S0314_600","Certosa 83","43.3066541034271","11.3601868441788","9@S0314"
"9@S0315_600","Certosa 126","43.3050306058887","11.3617419511971","9@S0315"
"9@S0316_600","Certosa 134","43.3028460605188","11.363927666533","9@S0316"
"9@S0317_600","Certosa 107","43.300741275643","11.3657118329456","9@S0317"
"9@S0318_600","Bivio La Torre","43.2986969630177","11.368026721213","9@S0318"
"9@S0319_600","Certosa","43.2946517356301","11.3691590730279","9@S0319"
"9@S0320_600","Linaiolo","43.3123064466071","11.3480865464577","9@S0320"
"9@S0321_600","S.Pietrino","43.2901643417984","11.3714857833122","9@S0321"
"9@S0322_600","San Pietrino 162","43.2899064971903","11.3716903364333","9@S0322"
"9@S0323_600","Strada Di Certosa","43.2947130034361","11.3692092816781","9@S0323"
"9@S0325_600","Bivio La Torre","43.298753494849","11.3679839196135","9@S0325"
"9@S0326_600","Certosa 107","43.3008068615598","11.3657666491216","9@S0326"
"9@S0327_600","Certosa 134","43.3028878955313","11.3639815620098","9@S0327"
"9@S0328_600","Certosa 95","43.3051485580687","11.3617986722987","9@S0328"
"9@S0329_600","Certosa 85","43.306746092394","11.3601186476142","9@S0329"
"9@S0330_600","Certosa 79","43.3094324009612","11.3571625771468","9@S0330"
"9@S0331_600","Peruzza","43.3093068846242","11.353771413995","9@S0331"
"9@S0332_600","Il Canto","43.3108218083325","11.350078164342","9@S0332"
"9@S0333_600","Certosa","43.3108300684462","11.3445715202999","9@S0333"
"9@S0334_600","Certosa 166","43.2880352743645","11.3787640487311","9@S0334"
"9@S0335_600","Strada Di Certosa 166","43.2880708164208","11.3789086754629","9@S0335"
"9@S0337_600","Abbadia Ruffolo","43.2963821327753","11.379101373674","9@S0337"
"9@S0339_600","Renaccio 31","43.2949757806215","11.3795298624461","9@S0339"
"9@S0340_600","Bivio San Pietrino","43.2877577233157","11.3796301681991","9@S0340"
"9@S0341_600","Zona Industriale","43.2828073103016","11.3778409440106","9@S0341"
"9@S0342_600","Fattoria Di Renaccio","43.2823561401796","11.3723136811222","9@S0342"
"9@S0343_600","Renaccio","43.2834911428478","11.3680514120043","9@S0343"
"9@S0344_600","Renaccio 19","43.2827687948236","11.3658222022953","9@S0344"
"9@S0345_600","Renaccio 1","43.2839284752931","11.359096875365","9@S0345"
"9@S0346_600","Bivio Dei Fuochi","43.2851282797608","11.3544360607793","9@S0346"
"9@S0347_600","Cassia Sud 125","43.2854968922957","11.350945250302","9@S0347"
"9@S0348_600","Gigli 41","43.3132330708312","11.3415888913755","9@S0348"
"9@S0349_600","Gigli 27","43.3152359504426","11.3424716788025","9@S0349"
"9@S0350_600","Istituti Biologici","43.3420992797895","11.3211119148844","9@S0350"
"9@S0351_600","Bivio De Gasperi","43.3455993224984","11.3230051390443","9@S0351"
"9@S0352_600","Aldo Moro Mps","43.3496020759799","11.3251172959588","9@S0352"
"9@S0353_600","Di Vittorio","43.348069149949","11.3280277365419","9@S0353"
"9@S0354_600","Via Nenni","43.3490453406839","11.328033479925","9@S0354"
"9@S0355_600","Berlinguer","43.3474005935777","11.327386889825","9@S0355"
"9@S0356_600","Bivio Scotte","43.344148957343","11.3250288498873","9@S0356"
"9@S0357_600","Residenza Universitaria","43.3424022536335","11.323962142699","9@S0357"
"9@S0358_600","Gigli 12","43.3151555150767","11.3424071782415","9@S0358"
"9@S0359_600","Gigli 44","43.3130972035884","11.3413820640391","9@S0359"
"9@S0360_600","Bivio Tressa","43.2889337170888","11.3437949402281","9@S0360"
"9@S0361_600","Cassia Sud 194","43.28536690289","11.3510620142798","9@S0361"
"9@S0369_600","Renaccio 42","43.2946003983985","11.3798889728156","9@S0369"
"9@S0370_600","V.Orlandi Lato Inc.Via","43.3395389845965","11.3252630213267","9@S0370"
"9@S0371_600","Renaccio 13","43.2925186795279","11.3808292242437","9@S0371"
"9@S0372_600","Porta Laterina","43.3146650925698","11.3247395782965","9@S0372"
"9@S0373_600","Nazario Sauro","43.325220126927","11.3249783430728","9@S0373"
"9@S0375_600","Renaccio 13","43.2916450638656","11.3802806122679","9@S0375"
"9@S0376_600","Piazza Mario Cioni","43.31742109702","11.3419992197667","9@S0376"
"9@S0377_600","Toselli Mercati","43.3252314112982","11.3432954748666","9@S0377"
"9@S0378_600","Toselli Mps","43.3239215850611","11.3451047899589","9@S0378"
"9@S0379_600","Piazza Mario Cioni","43.3173572794729","11.3420864568608","9@S0379"
"9@S0380_600","Torre Fiorentina","43.3371165571656","11.3074651744377","9@S0380"
"9@S0381_600","Lo Stellino","43.3403231511397","11.3059178127542","9@S0381"
"9@S0382_600","Fontebecci","43.3425497117788","11.3060319800865","9@S0382"
"9@S0384_600","Porta Ovile","43.3236100291679","11.3333039017323","9@S0384"
"9@S0385_600","Siena - Ferrovia","43.3313823348985","11.3231666075246","9@S0385"
"9@S0386_600","Le Cannelle","43.303818073057","11.3134239137376","9@S0386"
"9@S0387_600","Costafabbri","43.302210079241","11.3113035923951","9@S0387"
"9@S0406_600","Costafabbri","43.3023680793051","11.311308053037","9@S0406"
"9@S0407_600","Le Cannelle","43.3037783418659","11.313549640603","9@S0407"
"9@S0408_600","La Pellegrina","43.2982684293044","11.3088121288241","9@S0408"
"9@S0409_600","Pantanino","43.3022416527891","11.298759535126","9@S0409"
"9@S0410_600","La Villa","43.3033848874989","11.2957222746647","9@S0410"
"9@S0411_600","Belcaro","43.3061435873057","11.2912688300516","9@S0411"
"9@S0412_600","Terrenzano Cantina","43.3082168081834","11.2888852197422","9@S0412"
"9@S0413_600","Montalbuccio","43.3132832412601","11.2861129659569","9@S0413"
"9@S0414_600","Galignano","43.313729984504","11.287879355805","9@S0414"
"9@S0415_600","Galignano 50","43.3117778820839","11.293277270999","9@S0415"
"9@S0416_600","Villa Agostoli","43.3101518243882","11.300399059646","9@S0416"
"9@S0417_600","Il Gallinaio","43.3072116658133","11.3060328548754","9@S0417"
"9@S0418_600","Tre Cancelli","43.3058367289678","11.3089999335453","9@S0418"
"9@S0419_600","Deposito At","43.316015454407","11.3564596241621","9@S0419"
"9@S0420_600","La Colonia","43.320411814955","11.3645163328117","9@S0420"
"9@S0421_600","Quattro Torri","43.3210402034388","11.3683094864065","9@S0421"
"9@S0422_600","Strada Pieve A Bozzone","43.3185541599622","11.3608973669619","9@S0422"
"9@S0423_600","La Buca","43.3204466294938","11.3763852491116","9@S0423"
"9@S0424_600","La Pieve A Bozzone","43.3197060440982","11.3861801118172","9@S0424"
"9@S0425_600","Bivio Mociano","43.320248806912","11.3908859951235","9@S0425"
"9@S0427_600","Guido Da Siena","43.3315516045231","11.2985973827277","9@S0427"
"9@S0428_600","Guido Da Siena","43.3314728743806","11.2988498598841","9@S0428"
"9@S0429_600","Tinello","43.3066287390701","11.315023408864","9@S0429"
"9@S0430_600","Bivio Tinello","43.3064719293458","11.3151191728481","9@S0430"
"9@S0432_600","Aldo Moro Palestra","43.3441065402786","11.3214494811506","9@S0432"
"9@S0433_600","Via Tegliacci","43.3328663759158","11.2999718747784","9@S0433"
"9@S0434_600","Via Tegliacci","43.3329581991981","11.2998743195932","9@S0434"
"9@S0436_600","Laterino","43.3140135061766","11.3224695052422","9@S0436"
"9@S0437_600","Cancello Whirlpool","43.3183060704941","11.3532425349041","9@S0437"
"9@S0438_600","Toselli Mercati","43.3252380241444","11.3434209114682","9@S0438"
"9@S0439_600","La Veloce","43.3163623153154","11.3575895218743","9@S0439"
"9@S0440_600","Toselli Whirlpool","43.3177098249713","11.3536893380645","9@S0440"
"9@S0441_600","Porta Romana","43.314947051179","11.3397472683772","9@S0441"
"9@S0442_600","Bivio Mociano","43.3202041262549","11.3909902989256","9@S0442"
"9@S0443_600","La Pieve A Bozzone","43.3198073212652","11.3861809943691","9@S0443"
"9@S0444_600","La Buca","43.3205049891422","11.3762330017584","9@S0444"
"9@S0445_600","Quattro Torri","43.3210883317239","11.3682072716082","9@S0445"
"9@S0446_600","Villa Colonia","43.3204078846142","11.3643711531721","9@S0446"
"9@S0447_600","Deposito At","43.3160772952308","11.3563949324424","9@S0447"
"9@S0448_600","La Veloce","43.3163449766789","11.3577709862692","9@S0448"
"9@S0449_600","Toselli Mps","43.3240738074536","11.3449441530866","9@S0449"
"9@S0451_600","Porta Romana","43.3129336297135","11.3395290063863","9@S0451"
"9@S0452_600","Rotonda Madonnina Rossa","43.327538736345","11.3382068780097","9@S0452"
"9@S0453_600","Ellera","43.3148834315828","11.299850824638","9@S0453"
"9@S0454_600","Montalbuccio Circolo","43.3154717870138","11.2908354320973","9@S0454"
"9@S0456_600","Montalbuccio Bottega","43.3162745947951","11.293332263248","9@S0456"
"9@S0460_600","Galoppatoio","43.2963411029123","11.3086659547343","9@S0460"
"9@S0461_600","Toscana 37","43.3423921668815","11.3141311188513","9@S0461"
"9@S0464_600","Pian Delle Fornaci","43.2951425065226","11.3082485461475","9@S0464"
"9@S0465_600","Costalpino","43.2917406810235","11.3040114116596","9@S0465"
"9@S0466_600","Tabernacolo","43.2874188410475","11.3039329996174","9@S0466"
"9@S0467_600","Circolo Sant'Andrea","43.2829733892277","11.303531967836","9@S0467"
"9@S0469_600","Sant' Andrea A Montecchio","43.280105891098","11.2979724035927","9@S0469"
"9@S0470_600","Bivio Fogliano","43.2752601375973","11.2946591465121","9@S0470"
"9@S0488_600","Circolo Sant'Andrea","43.2833298146325","11.3036684239129","9@S0488"
"9@S0489_600","Tabernacolo","43.2872202300136","11.3043877080138","9@S0489"
"9@S0490_600","Costalpino","43.2916859152865","11.3041196650181","9@S0490"
"9@S0491_600","Pian Delle Fornaci","43.2943978919113","11.3077031273664","9@S0491"
"9@S0492_600","La Pellegrina","43.2982507299936","11.3089216691709","9@S0492"
"9@S0494_600","Toscana 17","43.3414028841441","11.3147763513366","9@S0494"
"9@S0496_600","Via Banchi - Cus","43.3382959305166","11.2996310427916","9@S0496"
"9@S0501_600","Bozzone 28","43.3191688152909","11.3623033477434","9@S0501"
"9@S0502_600","Santa Regina","43.3168671742036","11.3630973191026","9@S0502"
"9@S0513_600","Santa Regina","43.3167947368221","11.3632170857212","9@S0513"
"9@S0514_600","Bivio Santa Regina","43.3192117981586","11.3621927926865","9@S0514"
"9@S0515_600","Villa Colonia","43.3224717253847","11.3661195927977","9@S0515"
"9@S0516_600","Villa Pergola","43.3250113151409","11.3661850348012","9@S0516"
"9@S0517_600","Villa Fabbri","43.3292347611337","11.3629330348464","9@S0517"
"9@S0518_600","Vignano","43.3301282721264","11.3606998005395","9@S0518"
"9@S0523_600","Bottega Nuova","43.3320225792932","11.3440095023604","9@S0523"
"9@S0524_600","Chiantigiana 5","43.3292858052134","11.3423837818614","9@S0524"
"9@S0525_600","Chiantigiana 3","43.3280328905253","11.3411046971132","9@S0525"
"9@S0527_600","Caggio","43.2685390253897","11.2906385189945","9@S0527"
"9@S0528_600","Il Borghetto","43.2644271854888","11.2881563434386","9@S0528"
"9@S0596_600","Chiantigiana Montarioso","43.3538408586721","11.3133456213773","9@S0596"
"9@S0674_600","Sardegna 42","43.326808676011","11.3332621121332","9@S0674"
"9@S0711_600","Nino Bixio","43.3272922054492","11.3279307843436","9@S0711"
"9@S0712_600","Montalbuccio Cappella","43.3140612169068","11.2877547906846","9@S0712"
"9@S0713_600","Chiesa","43.2821020796764","11.3011209380971","9@S0713"
"9@S0714_600","Ropole","43.2955238934756","11.3913948400415","9@S0714"
"9@S0730_600","Bivio Europa","43.3089676289397","11.3613806760785","9@S0730"
"9@S0731_600","Fangonero","43.3049568856104","11.3661213547949","9@S0731"
"9@S0732_600","Il Molino","43.3029791150106","11.3705644369739","9@S0732"
"9@S0733_600","Arpat","43.3022099113025","11.3741953734596","9@S0733"
"9@S0734_600","Ruffolo","43.3018827059876","11.3801275508131","9@S0734"
"9@S0735_600","Le Ropole","43.2970897484567","11.3891533355272","9@S0735"
"9@S0736_600","Bivio Renaldini","43.2943198198751","11.3968488995898","9@S0736"
"9@S0762_600","Taverne D'Arbia","43.29520895759","11.3996909713585","9@S0762"
"9@S0763_600","Via Principale 23","43.2947418537091","11.3971016697539","9@S0763"
"9@S0764_600","Le Ropole","43.2973386467953","11.3889754603839","9@S0764"
"9@S0765_600","Ruffolo","43.3019919303177","11.3801532656349","9@S0765"
"9@S0766_600","Arpat","43.3022331165143","11.3738497213026","9@S0766"
"9@S0767_600","Il Molino","43.3030251670675","11.3706145558736","9@S0767"
"9@S0768_600","Fangonero","43.3050872795258","11.3660727831351","9@S0768"
"9@S0769_600","Bivio Europa","43.3070772718394","11.3631169427337","9@S0769"
"9@S0775_600","Ropole","43.2954956148404","11.3912487636476","9@S0775"
"9@S0776_600","Porta Romana","43.3127272600382","11.3393823651904","9@S0776"
"9@S0792_600","Ruffolo","43.300726930881","11.3838833613361","9@S0792"
"9@S0801_600","Ruffolo","43.3007784418639","11.3836109480606","9@S0801"
"9@S0806_600","Montechiaro","43.3266589705803","11.4097705935898","9@S0806"
"9@S0823_600","Vittorio Bardini","43.2817892658738","11.3046573532217","9@S0823"
"9@S0832_600","Costafabbri Rotonda","43.3020082091951","11.3100505865674","9@S0832"
"9@S0837_600","Cassia Sud 352","43.2575501154717","11.3810427907419","9@S0837"
"9@S0861_600","Circolo Di Coroncina","43.2900785907799","11.3435269511974","9@S0861"
"9@S0893_600","Orlandi","43.3395178125184","11.3251706788319","9@S0893"
"9@S0894_600","Bivio Rossini","43.3381330441932","11.327928657798","9@S0894"
"9@S0895_600","Campeggio","43.3375747293181","11.330128243718","9@S0895"
"9@S0896_600","Scacciapensieri","43.3359115451268","11.3334367432014","9@S0896"
"9@S0897_600","Villa Scacciapensieri","43.3361282025781","11.3368078083268","9@S0897"
"9@S0898_600","Istituto Agrario","43.3362865188463","11.3394259186378","9@S0898"
"9@S0899_600","Osservanza","43.3353794976859","11.3413279676669","9@S0899"
"9@S0900_600","Bivio Fontebenedetta","43.3341032297155","11.3446288562755","9@S0900"
"9@S0901_600","(Tmp) Z.I. Isola D?Arbia","43.2659097395488","11.3758095653642","9@S0901"
"9@S0902_600","Le Fornaci","43.2831497681772","11.3536158002135","9@S0902"
"9@S0903_600","Cassia Sud 236","43.2787091670348","11.35269476043","9@S0903"
"9@S0904_600","Cassia Sud 158","43.2756830105088","11.3539133292384","9@S0904"
"9@S0905_600","Bivio Radi","43.2732207676092","11.3559054715828","9@S0905"
"9@S0906_600","Colle Di Malamerenda","43.2704135810734","11.3602956973005","9@S0906"
"9@S0907_600","Cassia Sud","43.2664551258773","11.3661400697614","9@S0907"
"9@S0909_600","Isola D'Arbia","43.2595244880031","11.3785580878899","9@S0909"
"9@S0910_600","Aldo Moro Palestra","43.3440799343315","11.3212875915228","9@S0910"
"9@S0911_600","Isola D'Arbia","43.2596789554715","11.3786900139735","9@S0911"
"9@S0912_600","Cassia Sud","43.2664641401394","11.366235293294","9@S0912"
"9@S0913_600","Colle Di Malamerenda","43.2704822729901","11.3603048839049","9@S0913"
"9@S0914_600","Bivio Radi","43.2733845499711","11.3558793840552","9@S0914"
"9@S0915_600","Cassia Sud 158","43.2755826185081","11.3540312104941","9@S0915"
"9@S0916_600","Le Fornaci","43.2829189331728","11.3536930460518","9@S0916"
"9@S0931_600","Fornicchiaia","43.311819821239","11.2846347705097","9@S0931"
"9@S0936_600","V.Le Sardegna Dir. Ferrovia","43.3279103042396","11.3302568713813","9@S0936"
"9@S0938_600","Bivio Radi 173","43.2719447799412","11.3574873470893","9@S0938"
"9@S0940_600","V Le Sardegna Dir. Ovile","43.3277482923865","11.3302980363736","9@S0940"
"9@S0944_600","Strada Di Montalbuccio","43.3159134822749","11.2958961782969","9@S0944"
"9@S0945_600","Montalbuccio","43.313701675703","11.3030740527015","9@S0945"
"9@S0946_600","Montalbuccio 43","43.3138560162199","11.3065035706321","9@S0946"
"9@S0947_600","Palazzo Dei Priori","43.3112494690117","11.3131191049262","9@S0947"
"9@S0952_600","Luglie 13","43.3047792027348","11.342205414809","9@S0952"
"9@S0953_600","Luglie 13","43.304949363853","11.3419864516296","9@S0953"
"9@S0975_600","Presciano Muratori","43.2972068520651","11.4027484023793","9@S0975"
"9@S0981_600","Casone","43.314114403971","11.3583643859838","9@S0981"
"9@S0982_600","Casone","43.3131028569606","11.3588546088456","9@S0982"
"9@S0983_600","Via Fiorentina","43.3350458371733","11.3088058665032","9@S0983"
"9@S0984_600","Via Fiorentina","43.3341144380669","11.3098134431901","9@S0984"
"9@S1002_600","Bivio Peragna","43.3344270289418","11.3100829321035","9@S1002"
"9@S1003_600","Sclavo 33","43.3340388077984","11.3109365950868","9@S1003"
"9@S1118_600","Ficareto","43.3524001326133","11.3187491630484","9@S1118"
"9@S1119_600","Ficareto","43.3503424648074","11.3212013795189","9@S1119"
"9@S1120_600","Ficareto","43.3524122599678","11.3188348857836","9@S1120"
"9@S1129_600","Busseto","43.3210252439905","11.3545622627784","9@S1129"
"9@S1130_600","Cerchiaia","43.2943943901818","11.3430460872503","9@S1130"
"9@S1131_600","Cerchiaia","43.2942828847494","11.342955515289","9@S1131"
"9@S1199_600","Toselli Parcheggio","43.3170904120613","11.354289518175","9@S1199"
"9@S1200_600","Bivio Busseto","43.3215630078685","11.3494223914187","9@S1200"
"9@S1201_600","Tre Cancelli","43.3057535337882","11.3092137787053","9@S1201"
"9@S1208_600","Bivio Busseto","43.3217003368431","11.3493602272263","9@S1208"
"9@S1214_600","Il Gallinaio","43.3071259765452","11.3061340454542","9@S1214"
"9@S1234_600","Villa Agostoli","43.3101808532953","11.3005404727138","9@S1234"
"9@S1235_600","Galignano 50","43.3117883363956","11.2934563336737","9@S1235"
"9@S1241_600","Pescaia","43.3219788562498","11.3167682010079","9@S1241"
"9@S1242_600","Parcheggio Fagiolone","43.31401556706","11.3171497574163","9@S1242"
"9@S1243_600","Pescaia","43.3215198428597","11.3174427262872","9@S1243"
"9@S1270_600","San Marco","43.3092196934853","11.3237119778153","9@S1270"
"9@S1271_600","San Marco","43.3090949387357","11.32344853999","9@S1271"
"9@S1360_600","San Bernardino","43.3551983036357","11.3145200905531","9@S1360"
"9@S1362_600","San Bernardino","43.3552068190791","11.314668733017","9@S1362"
"9@S1365_600","Vittorio Bardini","43.2818439362641","11.3047101947116","9@S1365"
"9@S1507_600","Avignone Scuole","43.3296824429858","11.3164806920294","9@S1507"
"9@S1527_600","Montechiaro","43.3263703582352","11.409960089721","9@S1527"
"9@S1536_600","Casabianca","43.3231096615362","11.3921729417928","9@S1536"
"9@S1537_600","Casabianca","43.3229234246625","11.3920239272801","9@S1537"
"9@S1538_600","Montechiaro Scuole","43.3290678751653","11.4068147005732","9@S1538"
"9@S1539_600","Montechiaro Scuole","43.3288883865654","11.406910597812","9@S1539"
"9@S1540_600","Montechiaro Villa","43.331744300523","11.4052885905567","9@S1540"
"9@S1541_600","Montechiaro Villa","43.3316232938092","11.4052026515242","9@S1541"
"9@S1542_600","Montechiaro","43.333057723606","11.404573600986","9@S1542"
"9@S1543_600","Montechiaro","43.3328201409137","11.4046019664525","9@S1543"
"9@S1632_600","Via Principale","43.2958157345086","11.4014108263576","9@S1632"
"9@S1636_600","Grotte","43.3170331931777","11.3233010984195","9@S1636"
"9@S1637_600","Grotte","43.3168992357164","11.3232286946391","9@S1637"
"9@S1658_600","Piazza D'Armi","43.3277557772963","11.3222488248026","9@S1658"
"9@S1725_600","Logge Del Papa Bibo","43.3190048543957","11.3332045318588","9@S1725"
"9@S2000_600","Siena-Via Tozzi","43.3228438476229","11.3276958435147","9@S2000"
"9@S2016_600","Santa Lucia Inizio","43.3139402123458","11.3284449288441","9@S2016"
"9@S2045_600","Sclavo Palasport","43.3334187027086","11.3137941330658","9@S2045"
"9@S2046_600","Sclavo Palasport","43.3333598080843","11.3135256645733","9@S2046"
"9@S2047_600","Bivio Marciano","43.3323716317386","11.3102363839381","9@S2047"
"9@S2048_600","Bivio Marciano","43.3321594204639","11.3104807028284","9@S2048"
"9@S2049_600","Taverne","43.2945533379587","11.3937538780397","9@S2049"
"9@S2050_600","Taverne","43.2944781734069","11.3949883795675","9@S2050"
"9@S2051_600","Strozzi","43.3331866211326","11.3079614144937","9@S2051"
"9@S2058_600","Parcheggio Viale Toselli","43.317290806714","11.3543262383825","9@S2058"
"9@S2060_600","Simone Martini 132","43.3267742413001","11.3386442624361","9@S2060"
"9@S2061_600","San Miniato","43.3485568696401","11.3282767361855","9@S2061"
"9@S2062_600","Aldo Moro Mps","43.3499183474066","11.3250528781453","9@S2062"
"9@S2063_600","Via Moro","43.3459793991583","11.3234518207578","9@S2063"
"9@S2064_600","Ugo La Malfa","43.3417413888605","11.3212395273423","9@S2064"
"9@S2076_600","Aldo Moro","43.3500434878992","11.3266954393394","9@S2076"
"9@S2077_600","Aldo Moro","43.3496858855246","11.3269236008807","9@S2077"
"9@S2087_600","Due Ponti","43.3156849995566","11.3561541033523","9@S2087"
"9@S2089_600","Residenza Universitaria","43.3422167315784","11.3239108971696","9@S2089"
"9@S2090_600","Bivio Scotte","43.3441838418682","11.3256023757023","9@S2090"
"9@S2091_600","Berlinguer","43.3474286285119","11.3274825919616","9@S2091"
"9@S2217_600","Cassia Sud 161","43.2796501271176","11.3527545741645","9@S2217"
"9@S2218_600","Belvedere","43.2867873959383","11.3468327972144","9@S2218"
"9@S2242_600","Via Della Mercanzia","43.2580430099205","11.3793123752765","9@S2242"
"9@S2243_600","Via Della Mercanzia","43.2569181781565","11.3807543962917","9@S2243"
"9@S2282_600","Belvedere","43.2867308229124","11.3464744161748","9@S2282"
"9@S2364_600","San Girolamo","43.316763177653","11.3372740668126","9@S2364"
"9@S2366_600","Collinella","43.3167275358735","11.3139921569491","9@S2366"
"9@S2367_600","Bivio Collinella","43.3218985978913","11.3165254046227","9@S2367"
"9@S2369_600","Rinaldo Franci","43.3237849806479","11.3248936143373","9@S2369"
"9@S2371_600","Piazza Del Mercato","43.3171496657243","11.3328775065556","9@S2371"
"9@S2372_600","San Girolamo","43.3164656896941","11.3371944658178","9@S2372"
"9@S2373_600","Via Roma","43.3151592602343","11.3395596807249","9@S2373"
"9@S2374_600","Bar Dell'Artigiano","43.322216950904","11.3469775046901","9@S2374"
"9@S2375_600","Parcheggio Viale Toselli","43.3171450950458","11.354358097719","9@S2375"
"9@S2376_600","Pispini","43.3178945365087","11.3397523565737","9@S2376"
"9@S2377_600","Pantaneto","43.3174664167306","11.3363127761619","9@S2377"
"9@S2379_600","Logge Del Papa","43.3187724443385","11.3333817229817","9@S2379"
"9@S2380_600","San Martino","43.3172490498271","11.3354494929427","9@S2380"
"9@S2381_600","Oliviera","43.3170268450071","11.3377262648034","9@S2381"
"9@S2382_600","Pispini","43.3178076563394","11.3397035171434","9@S2382"
"9@S2383_600","Zona Artigianale","43.322997538691","11.3471472999382","9@S2383"
"9@S2387_600","Malizia 50","43.3334346500536","11.3286575564232","9@S2387"
"9@S2389_600","Strada Di Cerchiaia","43.2948445924186","11.3382613684325","9@S2389"
"9@S2392_600","Piazza Postierla","43.3162144784846","11.3297173029321","9@S2392"
"9@S2394_600","Pian Dei Mantellini","43.3149699080126","11.3272607179444","9@S2394"
"9@S2396_600","Cerchiaia Massetana","43.2956313058194","11.3413089884777","9@S2396"
"9@S2397_600","Cerchiaia","43.2955986438044","11.3413947839312","9@S2397"
"9@S2401_600","Via Lombardi","43.3321303459501","11.3245951155454","9@S2401"
"9@S2402_600","Di Vittorio 14","43.3475554633055","11.3308603381894","9@S2402"
"9@S2403_600","Di Vittorio 31","43.3482093583497","11.332444018597","9@S2403"
"9@S2404_600","Nenni 17","43.3482336979577","11.330349975833","9@S2404"
"9@S2405_600","Via Lombardi","43.3322965501942","11.3242768094934","9@S2405"
"9@S2412_600","Valdambrino 9","43.3246176163948","11.3363442407212","9@S2412"
"9@S2413_600","Taverne D'Arbia","43.2938074710579","11.3990346538997","9@S2413"
"9@S2418_600","Massetana Farmacia","43.2992387480352","11.3296004224774","9@S2418"
"9@S2419_600","Strada Massetana","43.3069176838665","11.3171165914829","9@S2419"
"9@S2423_600","Salicotto","43.3165833588592","11.3360806361469","9@S2423"
"9@S2424_600","Zona Agroalimentare","43.3250820484972","11.3431893383794","9@S2424"
"9@S2450_600","Sant'Isidoro","43.2953806423307","11.4017801519644","9@S2450"
"9@S2458_600","Ponte Bianchi Bandinelli","43.3329854103607","11.3197215091339","9@S2458"
"9@S2459_600","Ponte Bianchi Bandinelli","43.3328242838543","11.3195196185879","9@S2459"
"9@S2467_600","Piazza Chigi","43.3274632213813","11.3257971769368","9@S2467"
"9@S2468_600","Hotel Ai Tufi","43.2979692074272","11.3316126299492","9@S2468"
"9@S2470_600","Artigianato","43.3211747081876","11.3482851722547","9@S2470"
"9@S2471_600","Toselli 106","43.3202772642575","11.3505594284733","9@S2471"
"9@S2472_600","Zani","43.3184764215787","11.3523424623487","9@S2472"
"9@S2473_600","Zani","43.3186543294886","11.3522686787118","9@S2473"
"9@S2474_600","Toselli 106","43.3204458821445","11.3506089718643","9@S2474"
"9@S2475_600","Via Del Sole","43.3163616006075","11.3356658157756","9@S2475"
"9@S2476_600","Coroncina","43.2908377065676","11.3440110755614","9@S2476"
"9@S2477_600","Strada D'Istieto","43.2955903182609","11.3432524049035","9@S2477"
"9@S2478_600","Istieto 8","43.29582595464","11.3487459842127","9@S2478"
"9@S2479_600","Istieto 20","43.2960039735064","11.3524416623918","9@S2479"
"9@S2480_600","Istieto 40","43.2962553901837","11.3560216078344","9@S2480"
"9@S2482_600","Istieto 40","43.2963199921065","11.3557442720797","9@S2482"
"9@S2483_600","Istieto 20","43.2960241547918","11.3522135226453","9@S2483"
"9@S2484_600","Istieto 37","43.2958552517349","11.348827609512","9@S2484"
"9@S2485_600","Strada D'Istieto","43.2956236230544","11.3432133743532","9@S2485"
"9@S2487_600","Fonti Di Fontebranda","43.3190423004921","11.3270912759253","9@S2487"
"9@S2488_600","Parcheggio Santa Caterina","43.3183152664635","11.3254075964406","9@S2488"
"9@S2490_600","Esterna Fontebranda 33","43.3150181102956","11.3190977210414","9@S2490"
"9@S2491_600","Parcheggio Duomo","43.3133339354499","11.3259300314175","9@S2491"
"9@S2493_600","Tufi 62","43.2991969318495","11.3321901628236","9@S2493"
"9@S2494_600","Parcheggio Tufi 1","43.2969928723915","11.3333524402061","9@S2494"
"9@S2495_600","Parcheggio Tufi 1","43.2970444078767","11.3333773410122","9@S2495"
"9@S2496_600","Pescaia 55","43.313766303965","11.3178308134544","9@S2496"
"9@S2497_600","Esterna Fontebranda 33","43.3150168205038","11.319161300813","9@S2497"
"9@S2499_600","Parcheggio Santa Caterina","43.3181855191173","11.3253898208147","9@S2499"
"9@S2500_600","Risalita Fontebranda","43.3186972941062","11.3264217979015","9@S2500"
"9@S2507_600","Angolo  Via Delle Terme","43.3188982853057","11.3308076454891","9@S2507"
"9@S2511_600","Coroncina","43.2907594922266","11.34389097091","9@S2511"
"9@S2512_600","Tufi","43.3033986488878","11.3283050353684","9@S2512"
"9@S2514_600","Piazza Indipendenza","43.3191948071947","11.3304251395546","9@S2514"
"9@S2520_600","Ascarello","43.3271319633492","11.3593230812756","9@S2520"
"9@S2521_600","Villa Brandi","43.3232620859195","11.3599654976365","9@S2521"
"9@S2526_600","Pieve A Bozzone","43.3184620211349","11.3609030465188","9@S2526"
"9@S2527_600","Bv. Lucherino","43.2953978210806","11.3369659095745","9@S2527"
"9@S2528_600","Bv. Lucherino","43.2957480756899","11.3371643616883","9@S2528"
"9@S2532_600","Box 2 Terminal Pescaia","43.3239422936963","11.3198877745474","9@S2532"
"9@S2574_600","Piazza Del Sale","43.324322665752","11.3285032515154","9@S2574"
"9@S3905_600","Stufa Secca","43.3219943052214","11.3302861622811","9@S3905"
"9@S3908_600","Istieto","43.2959283583204","11.3576901706342","9@S3908"
"9@S3917_600","Vignali","43.2802729501992","11.3045957766546","9@S3917"
"9@S3922_600","Zona Commerciale","43.2935492293484","11.3385490973548","9@S3922"
"9@S3929_600","Massetana Parcheggio","43.3027313236847","11.3239319589687","9@S3929"
"9@S3935_600","Valle","43.2792352416958","11.304295569601","9@S3935"
"9@S3936_600","Strada Di Cerchiaia","43.2947499593221","11.3381601103837","9@S3936"
"9@S3943_600","Orlandi Giardini","43.3403084461678","11.3249012171526","9@S3943"
"9@S3946_600","Orlandi Giardini","43.340288068221","11.3247742389421","9@S3946"
"9@S3955_600","Tufi 56","43.3033840157613","11.3282454216266","9@S3955"
"9@S3987_600","Risalita San Francesco","43.3234541624797","11.3358129760217","9@S3987"
"9@S3988_600","Risalita San Francesco","43.3232391271914","11.3360914713348","9@S3988"
"9@S3996_600","La Colonna","43.3083135626077","11.3172422649708","9@S3996"
"9@S3997_600","La Colonna","43.3087328361058","11.317480015754","9@S3997"
"9@S3998_600","Toscana","43.3412454674895","11.3152266944684","9@S3998"
"9@S5002_600","Due Ponti","43.315911489762","11.3563357440984","9@S5002"
"9@S9795_600","Misericordia","43.310333422924","11.3331012277596","9@S9795"
"9@S9796_600","Misericordia","43.3105260059045","11.3330401652345","9@S9796"
"9@SV499_600","San Rocco Incrocio Coop","43.2597626657965","11.2862614526052","9@SV499"
"9@SV526_600","Montespecchio","43.2720158811105","11.2938321012229","9@SV526"
"9@SV529_600","Bivio Ampugnano","43.2618787127019","11.2867981358316","9@SV529"
"9@SV540_600","Piazza Repubblica","43.2573641180575","11.2855241191611","9@SV540"
"SI0024_600","Vecchietta 30","43.3260847084897","11.3362796289402","SI0024"
"SI0025_600","Vecchietta 130","43.3250232154162","11.3385917302263","SI0025"
