stop_id,stop_name,stop_lat,stop_lon,stop_code
"6@BAM006_600","Barberino Casello A1","43.9805681254218","11.2187719032297","6@BAM006"
"6@BAM007_600","Barberino Casello A1","43.9806944429856","11.2190771111277","6@BAM007"
"6@BAM008_600","Molino Ponte Al Sasso","43.9802500074384","11.2220469661453","6@BAM008"
"6@BAM009_600","Molino Ponte Al Sasso","43.9801504248394","11.2220612046507","6@BAM009"
"6@BAM010_600","Cavallina 0","43.9809963428363","11.2315009535152","6@BAM010"
"6@BAM011_600","Cavallina 0","43.9810167419494","11.2312310281187","6@BAM011"
"6@BAM012_600","Cavallina 1","43.983165571628","11.2328141733194","6@BAM012"
"6@BAM013_600","Cavallina 1","43.9830753565568","11.2326945805151","6@BAM013"
"6@BAM014_600","Cavallina","43.9843778328582","11.2332343305829","6@BAM014"
"6@BAM015_600","Cavallina","43.9845702220866","11.2331749611628","6@BAM015"
"6@BAM016_600","Bivio Ponticino","43.9873872878857","11.2329974385289","6@BAM016"
"6@BAM017_600","Bivio Ponticino","43.987587262154","11.2329046817169","6@BAM017"
"6@BAM018_600","La Miniera","43.9919927485351","11.2365653560482","6@BAM018"
"6@BAM023_600","Il Cornocchio","43.9604218081917","11.2144775129263","6@BAM023"
"6@BAM044_600","Barberino Repubblica","44.0048740981537","11.2385313209861","6@BAM044"
"6@BAM045_600","Barberino Repubblica","44.0045497504611","11.2384416942846","6@BAM045"
"6@BAM046_600","Barberino Bolognese","44.0067714951574","11.2378517614614","6@BAM046"
"6@BAM048_600","Piangianni","44.0128746860279","11.2364461379193","6@BAM048"
"6@BAM053_600","La Miniera","43.9921161690294","11.23716821598","6@BAM053"
"6@BAM054_600","Del Lago","43.9863078217527","11.2727902810858","6@BAM054"
"6@BAM055_600","Cafaggiolo","43.9658888545121","11.2950633204405","6@BAM055"
"6@BAM056_600","Cafaggiolo","43.9659342558317","11.2952099156942","6@BAM056"
"6@BAM057_600","Bivio Massorondinaio","43.961958135093","11.3024884184556","6@BAM057"
"6@BAM058_600","Bivio Latera","43.9796716125022","11.2257103491021","6@BAM058"
"6@BAM059_600","Bivio Latera","43.9797795394409","11.2256606449713","6@BAM059"
"6@BAM063_600","Spedaletto Cavallina","43.9762312420765","11.2222317773247","6@BAM063"
"6@BAM064_600","Spedaletto Cavallina","43.9761405641427","11.2221724152754","6@BAM064"
"6@BAM070_600","Barberino Via Gramsci","43.9964190711412","11.2401214856582","6@BAM070"
"6@BAM071_600","Barberino Via Gramsci","43.9963238912776","11.2400350914672","6@BAM071"
"6@BAM072_600","Le Fratine","43.9944986689507","11.2402148147359","6@BAM072"
"6@BAM073_600","Le Fratine","43.99542578244","11.2402298916788","6@BAM073"
"6@BAM074_600","Moriano","43.9887484602695","11.2544274089381","6@BAM074"
"6@BAM075_600","Moriano","43.9890493634238","11.2542988893206","6@BAM075"
"6@BAM076_600","Nazionale","43.9845049778906","11.2741310993013","6@BAM076"
"6@BAM079_600","Bilancino 2","43.968865196999","11.2924560598056","6@BAM079"
"6@BAM080_600","Bilancino 2","43.9689223023819","11.2925445212684","6@BAM080"
"6@BAM089_600","Il Cornocchio","43.9604705721369","11.2146185494812","6@BAM089"
"6@BAM091_600","Casa Del Bosco","43.9659538248055","11.2166743210945","6@BAM091"
"6@BAM092_600","Casa Del Bosco","43.9663426180005","11.2167097280314","6@BAM092"
"6@BAM093_600","Il Balzo","43.9736153892739","11.2177748570987","6@BAM093"
"6@BAM094_600","Il Balzo","43.9736231614326","11.2174990317711","6@BAM094"
"6@BAM095_600","La Ruzza","44.0237559185153","11.235179956816","6@BAM095"
"6@BAM096_600","Casino","44.0150035836308","11.2337899685152","6@BAM096"
"6@BAM097_600","Barberino Bouturlin","44.0090224463032","11.237678900057","6@BAM097"
"6@BAM104_600","Barberino Via Del Lavoro 1","43.9971964668208","11.2421004676749","6@BAM104"
"6@BAM108_600","Barberino Bolognese","44.0069789160679","11.2378961752548","6@BAM108"
"6@BAM109_600","Barberino Bouturlin","44.0089415673723","11.2377861306192","6@BAM109"
"6@BAM113_600","Bivio Galliano","43.9783762444419","11.288525726901","6@BAM113"
"6@BAM114_600","Bivio Galliano","43.9783827537372","11.2883806016848","6@BAM114"
"6@BAM144_600","Barberino Via Del Lavoro 1","43.9972396913392","11.2420036932787","6@BAM144"
"6@BAM145_600","Casino","44.0148940953744","11.233960763649","6@BAM145"
"6@BAM146_600","Barberino Centro Cavour","43.9991697942527","11.2387972401895","6@BAM146"
"6@BAM155_600","Barberino Centro Vittorio","43.9986669954693","11.2415895095417","6@BAM155"
"6@BAM156_600","Via 1 Maggio","44.0000323630782","11.2406748260554","6@BAM156"
"6@BAM157_600","Barberino Via Del Lavoro 3","43.9988865649246","11.2426864769375","6@BAM157"
"6@BAM160_600","Piangianni","44.0139378226692","11.2356607915983","6@BAM160"
"6@BSL022_600","Borgo S. L. Capolinea Viale Kennedy","43.9524342503751","11.3987223366525","6@BSL022"
"6@BSL023_600","Borgo San Lorenzo Pecori Giraldi 2","43.9534894901566","11.3930674567079","6@BSL023"
"6@BSL024_600","Borgo Quattro Novembre","43.9569193578001","11.3893686405679","6@BSL024"
"6@BSL041_600","Battiloro","43.9646771894461","11.3969380446685","6@BSL041"
"6@BSL042_600","Battiloro","43.9643278112795","11.3967818888893","6@BSL042"
"6@BSL043_600","Panicaglia Centro","43.9824966846856","11.4069793794712","6@BSL043"
"6@BSL044_600","Panicaglia Centro","43.9824091131202","11.4068754664812","6@BSL044"
"6@BSL045_600","Panicaglia Sr 302","43.9848186860167","11.4081968520461","6@BSL045"
"6@BSL046_600","Panicaglia Sr 302","43.9850438324231","11.4081851355966","6@BSL046"
"6@BSL047_600","Salto 0","43.9917397389264","11.4173818843537","6@BSL047"
"6@BSL048_600","Salto 0","43.9916990649753","11.4174404655173","6@BSL048"
"6@BSL049_600","Ronta 5","43.9979063696988","11.4213846784401","6@BSL049"
"6@BSL050_600","Ronta 5","43.9978804885323","11.4212592803333","6@BSL050"
"6@BSL051_600","Ronta Pulicciano","43.9997993281214","11.4248363419826","6@BSL051"
"6@BSL052_600","Ronta Pulicciano","43.9999366324304","11.4244925868667","6@BSL052"
"6@BSL053_600","Ronta Cimitero","44.0036238543775","11.4287302795165","6@BSL053"
"6@BSL054_600","Ronta Cimitero","44.0037096157054","11.4288336902898","6@BSL054"
"6@BSL055_600","Ronta San Donato","44.0061519454033","11.4327353698305","6@BSL055"
"6@BSL056_600","Ronta San Donato","44.0060411880852","11.4328883825327","6@BSL056"
"6@BSL059_600","Ronta Carabinieri","44.0076107913476","11.4347894890758","6@BSL059"
"6@BSL060_600","Viale Quattro Novembre","43.9558518161758","11.391942859163","6@BSL060"
"6@BSL061_600","Madonna Dei Tre Fiumi","44.0146067983761","11.443563537656","6@BSL061"
"6@BSL062_600","Madonna Dei Tre Fiumi","44.0144645567787","11.4430498202169","6@BSL062"
"6@BSL066_600","Bosso Di Sotto","43.9568667420225","11.3715496512011","6@BSL066"
"6@BSL067_600","Borgo S. L. Faentina","43.956799213504","11.3911136247536","6@BSL067"
"6@BSL069_600","Borgo San Lorenzo Scuole Caiani","43.9494622150792","11.4032222964386","6@BSL069"
"6@BSL070_600","Borgo San Lorenzo Via Caiani","43.949938546829","11.400620976045","6@BSL070"
"6@BSL073_600","Viale Quattro Novembre","43.9557954437138","11.3918832663455","6@BSL073"
"6@BSL074_600","Via Kennedy","43.9539295520397","11.3961554397001","6@BSL074"
"6@BSL077_600","Borgo San Lorenzo Sp 551","43.952061596705","11.3923289764802","6@BSL077"
"6@BSL078_600","Bosso Di Sotto","43.9572683477562","11.3707054078472","6@BSL078"
"6@BSL085_600","La Torre","43.9610976028918","11.3564756601427","6@BSL085"
"6@BSL089_600","Borgo San Lorenzo Piscine","43.950305578254","11.3975451935503","6@BSL089"
"6@BSL090_600","Borgo Resistenza","43.9579168003804","11.3834981201635","6@BSL090"
"6@BSL091_600","Borgo Ospedale","43.9573876384089","11.3775572019259","6@BSL091"
"6@BSL092_600","Soterna","43.9582018558863","11.3680079026282","6@BSL092"
"6@BSL093_600","Soterna","43.9582242148807","11.3681627168161","6@BSL093"
"6@BSL094_600","Borgo Ospedale","43.9574746541319","11.3765382890794","6@BSL094"
"6@BSL095_600","Borgo Resistenza","43.9578680170194","11.3836441112227","6@BSL095"
"6@BSL096_600","Borgo Quattro Novembre","43.9568046361143","11.3893605940286","6@BSL096"
"6@BSL097_600","Borgo San Lorenzo Pecori Giraldi 2","43.9535817653828","11.3929303338441","6@BSL097"
"6@BSL098_600","Borgo San Lorenzo Sp 551","43.9520041260805","11.3921483198614","6@BSL098"
"6@BSL099_600","Borgo San Lorenzo Piscine","43.9501845808403","11.3974848712426","6@BSL099"
"6@BSL100_600","Borgo San Lorenzo Via Caiani","43.9499325449644","11.4001440676691","6@BSL100"
"6@BSL103_600","Borgo S. L. Faentina","43.9569953827824","11.3911399414619","6@BSL103"
"6@BSL104_600","Bivio San Giovanni","43.9756815771326","11.4034811328831","6@BSL104"
"6@BSL105_600","Bivio San Giovanni","43.9755139652983","11.4031974713241","6@BSL105"
"6@BSL106_600","Salto","43.9871445467219","11.4105746329817","6@BSL106"
"6@BSL107_600","Salto","43.9870871790829","11.4103835194219","6@BSL107"
"6@BSL108_600","Panicaglia Fs","43.9786880345433","11.4060880750734","6@BSL108"
"6@BSL110_600","Salto P.L.","43.9899384884229","11.4150622160123","6@BSL110"
"6@BSL111_600","Salto P.L.","43.9898937772121","11.4148647438727","6@BSL111"
"6@BSL112_600","Poggio","43.9956819564643","11.4210293756518","6@BSL112"
"6@BSL114_600","Ronta","44.0099981484977","11.4366761432759","6@BSL114"
"6@BSL115_600","Ronta","44.0087978506484","11.4358664037932","6@BSL115"
"6@BSL117_600","Via Kennedy","43.9540905111311","11.3961649019322","6@BSL117"
"6@BSL172_600","Panicaglia Fs","43.9791340906603","11.4062144452534","6@BSL172"
"6@BSL240_600","Poggio","43.9955205376923","11.4209046072734","6@BSL240"
"6@BSL254_600","Ronta Carabinieri","44.0078020364533","11.4348774045543","6@BSL254"
"6@BSL255_600","Ronta Fratelli Rosselli","43.9968657251445","11.4237301677295","6@BSL255"
"6@BSL256_600","Ronta Campo Sportivo","43.9983428852921","11.4268476008645","6@BSL256"
"6@CAL001_600","Nome Di Gesu' 2","43.8565270302677","11.1499266095248","6@CAL001"
"6@CAL002_600","Puccini Ponte Alla Marina","43.8556490130937","11.155320876346","6@CAL002"
"6@CAL003_600","Via Risorgimento","43.8572306679422","11.1571677780661","6@CAL003"
"6@CAL004_600","Puccini 03","43.8595758181159","11.1592972885743","6@CAL004"
"6@CAL006_600","Il Neto","43.8459349900422","11.1802646824148","6@CAL006"
"6@CAL007_600","Calenzano Giovanni Xxiii","43.8503858000553","11.1797235870729","6@CAL007"
"6@CAL008_600","Giusti Tessitori","43.8587478269082","11.1757973824739","6@CAL008"
"6@CAL009_600","Giusti Carpugnane","43.8603275226308","11.1721763725471","6@CAL009"
"6@CAL010_600","Calenzano Via Giusti 3","43.8644852790192","11.1687179953374","6@CAL010"
"6@CAL011_600","Lo Smorto","43.9492122602517","11.2109336077233","6@CAL011"
"6@CAL012_600","Chiusa 03","43.8760569036897","11.1746315917319","6@CAL012"
"6@CAL013_600","Chiusa 04","43.875994908841","11.174464046548","6@CAL013"
"6@CAL014_600","Chiusa 05","43.8824690394556","11.1803780818526","6@CAL014"
"6@CAL015_600","Chiusa 06","43.882574765085","11.1803342642264","6@CAL015"
"6@CAL016_600","Bellini 03","43.8899075389346","11.1825884208881","6@CAL016"
"6@CAL017_600","Bellini 05","43.894352225813","11.1847029119106","6@CAL017"
"6@CAL019_600","Bellini 07","43.8976463498023","11.186868237846","6@CAL019"
"6@CAL021_600","Baccheraia","43.9542644711822","11.2135816027082","6@CAL021"
"6@CAL022_600","Baccheraia","43.9539883019386","11.2133141769671","6@CAL022"
"6@CAL023_600","Carraia Ragnaia","43.9057764710072","11.1902411928478","6@CAL023"
"6@CAL024_600","Carraia Ragnaia","43.9057387592229","11.1903673251587","6@CAL024"
"6@CAL025_600","Secciano","43.9150641024687","11.1968243711924","6@CAL025"
"6@CAL027_600","Pratignone 07","43.8456417370477","11.1595148405011","6@CAL027"
"6@CAL029_600","Porrino","43.9233059649751","11.2075805460195","6@CAL029"
"6@CAL030_600","Porrino","43.9231938038468","11.2075562171638","6@CAL030"
"6@CAL031_600","Tangenziale Ovest","43.8674791787702","11.1642937225752","6@CAL031"
"6@CAL033_600","Le Croci Di Calenzano","43.9458127388655","11.2135446793271","6@CAL033"
"6@CAL034_600","Le Croci Di Calenzano","43.9444840500184","11.214324244213","6@CAL034"
"6@CAL035_600","La Collinuzza","43.9390784799849","11.2156706402394","6@CAL035"
"6@CAL036_600","La Collinuzza","43.9395759331894","11.2160361268465","6@CAL036"
"6@CAL038_600","Angiolieri","43.8459082633926","11.1801554784529","6@CAL038"
"6@CAL039_600","Settimello","43.8492732658376","11.1797371103107","6@CAL039"
"6@CAL040_600","Giusti Cantine","43.8558276458001","11.179034507263","6@CAL040"
"6@CAL041_600","Giusti Petrarca","43.8586134812661","11.1763563938324","6@CAL041"
"6@CAL042_600","Giusti Leopardi","43.8603832095033","11.1722355097672","6@CAL042"
"6@CAL043_600","Lo Smorto","43.9480723481754","11.2105619125464","6@CAL043"
"6@CAL045_600","Chiusa 01","43.871476653636","11.1692647107104","6@CAL045"
"6@CAL046_600","Municipio Calenzano","43.8652975112881","11.1682892572192","6@CAL046"
"6@CAL047_600","Chiusa 02","43.8709232772455","11.1684932982925","6@CAL047"
"6@CAL048_600","Calenzano Fs 1","43.8578601346072","11.1461170331132","6@CAL048"
"6@CAL049_600","Bellini 04","43.889725145215","11.1824792989531","6@CAL049"
"6@CAL050_600","Bar Vannino Sesto F.No","43.8427428800102","11.1844679578856","6@CAL050"
"6@CAL051_600","Corzano","43.9203729680607","11.2024126392637","6@CAL051"
"6@CAL053_600","Pratignone Fs","43.8488637891927","11.1622531134236","6@CAL053"
"6@CAL054_600","Puccini 06","43.861155355039","11.1611198309545","6@CAL054"
"6@CAL055_600","Giusti Cavalcanti","43.8558134455553","11.178915965874","6@CAL055"
"6@CAL056_600","Vittorio Emanuele 5","43.8472414275559","11.175365319241","6@CAL056"
"6@CAL057_600","Calenzano","43.8650020817097","11.166066005532","6@CAL057"
"6@CAL059_600","Pino","43.8613507373386","11.1615952940982","6@CAL059"
"6@CAL060_600","Puccini 04","43.8592526830932","11.1588317628644","6@CAL060"
"6@CAL061_600","Puccini 02","43.8571681133183","11.1570022380868","6@CAL061"
"6@CAL062_600","Puccini Di Prato","43.8559460218279","11.1559948008566","6@CAL062"
"6@CAL063_600","Nome Di Gesu' 1","43.8562907803799","11.1501371038881","6@CAL063"
"6@CAL064_600","Calenzano Fs 2","43.8579988128658","11.1458281112397","6@CAL064"
"6@CAL065_600","Secciano","43.9149554879622","11.1968542501695","6@CAL065"
"6@CAL067_600","Vittorio Emanuele 07","43.8491418693364","11.1717028912102","6@CAL067"
"6@CAL068_600","Di Prato","43.8528352049586","11.163544470271","6@CAL068"
"6@CAL069_600","Corzano","43.9203989644457","11.2026846360963","6@CAL069"
"6@CAL071_600","Il Fondaccio","43.8503761502038","11.1685355355754","6@CAL071"
"6@CAL072_600","Vittorio Emanuele 04","43.848903110213","11.1718486230109","6@CAL072"
"6@CAL073_600","Emanuele","43.8471490355918","11.1752101858964","6@CAL073"
"6@CAL075_600","Puccini 08","43.8624405954726","11.1644869160755","6@CAL075"
"6@CAL078_600","Puccini 07","43.8623037815826","11.1644320637468","6@CAL078"
"6@CAL079_600","Bellini 01","43.8859532510969","11.1814296570231","6@CAL079"
"6@CAL080_600","Mugellese","43.8505474374481","11.1482407799915","6@CAL080"
"6@CAL081_600","Calenzano Via Di Capalle","43.8549292400968","11.1499529143603","6@CAL081"
"6@CAL082_600","Autostrada","43.8508148950529","11.1678537500824","6@CAL082"
"6@CAL083_600","La Fogliaia","43.8538981917429","11.1587532670153","6@CAL083"
"6@CAL084_600","Nome Di Gesu'","43.8551451428704","11.1502302965675","6@CAL084"
"6@CAL085_600","La Fogliaia 02","43.8537832418253","11.1588427108449","6@CAL085"
"6@CAL086_600","Autostrada 02","43.8521956661173","11.1637502640218","6@CAL086"
"6@CAL089_600","Bellini 02","43.8859033237116","11.1812907754249","6@CAL089"
"6@CBI001_600","Gkn","43.8532487064319","11.1302279088784","6@CBI001"
"6@CBI002_600","Officine Galileo","43.8425741405009","11.1490822060012","6@CBI002"
"6@CBI003_600","Marinella","43.8484914699948","11.1336101140584","6@CBI003"
"6@CBI005_600","Il Rosi 1","43.8587250488572","11.1421765394574","6@CBI005"
"6@CBI007_600","Via Del Pantano Sn","43.8499489725929","11.134201415149","6@CBI007"
"6@CBI008_600","Telecom","43.8473051239613","11.1457163690976","6@CBI008"
"6@CBI010_600","Telecom 02","43.847476280574","11.1457162870686","6@CBI010"
"6@CBI011_600","San Quirico","43.8527254908926","11.1487270839882","6@CBI011"
"6@CBI012_600","Fratelli Cervi","43.8484468295078","11.1335080005752","6@CBI012"
"6@CBI013_600","I Gigli","43.8449123833997","11.1410085898787","6@CBI013"
"6@CBI016_600","Il Pecci","43.8499898678226","11.1329036497819","6@CBI016"
"6@CBI017_600","Pantano","43.849896258866","11.132728625481","6@CBI017"
"6@FI_138_600","Statuto","43.7865014591874","11.2505563562613","6@FI_138"
"6@FI_301_600","Firenze Piazza Vittorio Veneto","43.7765095598255","11.2348020689569","6@FI_301"
"6@GCH005_600","Ferrone Manetti 2","43.6543473320481","11.2582953100746","6@GCH005"
"6@GCH006_600","Ferrone Manetti 1","43.6542004320586","11.2582113073008","6@GCH006"
"6@GCH010_600","Distr.Agip 2","43.6001596531961","11.312342296587","6@GCH010"
"6@GCH011_600","Distr.Agip 1","43.5999954301461","11.3124027907366","6@GCH011"
"6@GCH012_600","Melamezza 2","43.6483139804769","11.2608804812491","6@GCH012"
"6@GCH013_600","Melamezza 1","43.648297715198","11.2617023264447","6@GCH013"
"6@GCH021_600","Passo Dei Pecorai 3","43.6249425537405","11.2824994650843","6@GCH021"
"6@GCH022_600","Strada Case Nuove 1","43.6619238611332","11.2946425855017","6@GCH022"
"6@GCH024_600","Strada Piazza Landi 1","43.6582413759107","11.2980292072561","6@GCH024"
"6@GCH025_600","Strada Piazza Landi 2","43.6582775732315","11.2980531202035","6@GCH025"
"6@GCH026_600","Strada Scuole 2","43.6569427238023","11.3012036800062","6@GCH026"
"6@GCH027_600","Strada Scuole 1","43.6568872439696","11.3011681440513","6@GCH027"
"6@GCH028_600","Strada 4","43.6553119579745","11.3056591782902","6@GCH028"
"6@GCH029_600","Strada 2","43.6554136646008","11.3057172848458","6@GCH029"
"6@GCH030_600","Bivio Palagione 1","43.6534634796741","11.3076899868034","6@GCH030"
"6@GCH031_600","Bivio Palagione 2","43.6533572935622","11.3078740839438","6@GCH031"
"6@GCH032_600","Chiocchio Lago 1","43.6425881920368","11.3125423209172","6@GCH032"
"6@GCH033_600","Chiocchio Lago 2","43.6430057062788","11.312566286265","6@GCH033"
"6@GCH034_600","Chiocchio 1","43.6363814627036","11.3135972748122","6@GCH034"
"6@GCH035_600","Chiocchio 2","43.6369066055304","11.31407500402","6@GCH035"
"6@GCH036_600","Spedaluzzo 1","43.6289935752678","11.3114696195339","6@GCH036"
"6@GCH037_600","Spedaluzzo 2","43.6285684860228","11.3114864781158","6@GCH037"
"6@GCH038_600","Bivio Olmastrino 2","43.6259388821214","11.3094930757108","6@GCH038"
"6@GCH039_600","Bivio Olmastrino 1","43.625909137623","11.3093815453513","6@GCH039"
"6@GCH040_600","Giobbole 3","43.6225544598861","11.3068274596651","6@GCH040"
"6@GCH041_600","Giobbole 2","43.622361499949","11.3066050227059","6@GCH041"
"6@GCH042_600","Le Valli 2","43.6176921149304","11.300843522824","6@GCH042"
"6@GCH043_600","Le Valli 1","43.6170741614495","11.3000445280877","6@GCH043"
"6@GCH044_600","Bivio Le Bolle 1","43.6138744880045","11.2981890961055","6@GCH044"
"6@GCH045_600","Greti Distilleria 2","43.6072783443297","11.303775135069","6@GCH045"
"6@GCH046_600","Greti Distilleria 1","43.6072729665228","11.3034702394041","6@GCH046"
"6@GCH047_600","Greti Scuole 2","43.605344357834","11.3058324423731","6@GCH047"
"6@GCH048_600","Greti Scuole 1","43.6052057551498","11.3058252869023","6@GCH048"
"6@GCH049_600","Greti Chiesa 2","43.6042255279574","11.3076758449245","6@GCH049"
"6@GCH050_600","Greti Chiesa 1","43.6041465689464","11.3076712143622","6@GCH050"
"6@GCH051_600","Greve Zona Industriale 1","43.5922405848463","11.3151673769363","6@GCH051"
"6@GCH052_600","Greve Zona Industriale 2","43.5925437229671","11.3155236938001","6@GCH052"
"6@GCH053_600","Bivio Montefioralle 2","43.5876918807095","11.3149641375505","6@GCH053"
"6@GCH054_600","Bivio Montefioralle 1","43.5882112091991","11.314733340321","6@GCH054"
"6@GCH055_600","Greve Piazza Trento 2","43.5845390284969","11.3157900846118","6@GCH055"
"6@GCH056_600","Greve Piazza Trento 1","43.5851936262633","11.3152747434436","6@GCH056"
"6@GCH079_600","Passo Dei Pecorai 1","43.6217198425623","11.2861748355836","6@GCH079"
"6@GCH080_600","Passo Dei Pecorai 4","43.6221209335107","11.2858609843948","6@GCH080"
"6@GCH099_600","Bivio Dudda 1","43.6505439055264","11.3098385500556","6@GCH099"
"6@GCH100_600","Bivio Dudda 2","43.6505450326261","11.3099965657921","6@GCH100"
"6@GCH101_600","La Rovinata 1","43.5973717697241","11.3165543450745","6@GCH101"
"6@GCH102_600","La Rovinata 2","43.5972720092024","11.3167592537236","6@GCH102"
"6@GCH107_600","Le Bolle 2","43.6142743307346","11.2977777890257","6@GCH107"
"6@GCH108_600","Le Bolle 1","43.6143555147401","11.2978553593408","6@GCH108"
"6@GCH109_600","La Lellera 2","43.6190553584745","11.28938666616","6@GCH109"
"6@GCH110_600","La Lellera 1","43.6191829942544","11.2892222193155","6@GCH110"
"6@GCH112_600","Passo Dei Pecorai 2","43.6243513791729","11.2835168685248","6@GCH112"
"6@GCH135_600","Giobbole 4","43.6235634653312","11.3085634585726","6@GCH135"
"6@GCH138_600","Strada Togliatti","43.6598644310211","11.2948143773556","6@GCH138"
"6@GCH139_600","Poggio Sala 1","43.6687095448573","11.2915332930192","6@GCH139"
"6@GCH140_600","Parcole 2","43.6705859018248","11.2848031810026","6@GCH140"
"6@GCH141_600","Giobbole 1","43.6237637203008","11.30853754463","6@GCH141"
"6@GCH143_600","Tortelli 2","43.6726013376011","11.2777700389485","6@GCH143"
"6@GCH144_600","Casanova 1","43.6715958616954","11.280200528505","6@GCH144"
"6@GCH145_600","Parcole 1","43.6704265573962","11.2848202043307","6@GCH145"
"6@GCH147_600","Santa Cristina Villaggio 1","43.6688190494096","11.2871827153561","6@GCH147"
"6@GCH148_600","Casanova 2","43.6716713829231","11.2804135145689","6@GCH148"
"6@GCH149_600","Tortelli 1","43.6724785612867","11.2778451524936","6@GCH149"
"6@GCH159_600","Giobbolino 1","43.6206986213466","11.3036499936454","6@GCH159"
"6@GCH161_600","Martellina 1","43.6677109237239","11.2925266147796","6@GCH161"
"6@GCH164_600","Giobbolino 2","43.6205958881317","11.3037342918129","6@GCH164"
"6@GCH200_600","Bivio Le Bolle 2","43.6138404248006","11.2984412182331","6@GCH200"
"6@GCH206_600","Poggio Sala 2","43.6690614489813","11.2905433646365","6@GCH206"
"6@GCH207_600","Santa Cristina Villaggio 2","43.6688070578894","11.286684259195","6@GCH207"
"6@GCH208_600","Martellina 2","43.6676657386561","11.2926381359743","6@GCH208"
"6@IMPR_600","Impruneta Largo De Gasperi","43.6881224499428","11.2516465785545","6@IMPR"
"6@IMPXX1_600","Tavarnuzze Primo Maggio Scuole","43.7083868844998","11.2122920114985","6@IMPXX1"
"6@IMT002_600","Senese 29","43.7161432652735","11.2219459895884","6@IMT002"
"6@IMT004_600","Senese 33","43.7104441680353","11.216820257479","6@IMT004"
"6@IMT014_600","Falciani Marconi 2","43.6751707536478","11.2155896858934","6@IMT014"
"6@IMT015_600","Falciani Marconi 1","43.6754167743194","11.215677381074","6@IMT015"
"6@IMT016_600","Le Sibille 2","43.6667880075273","11.217866248593","6@IMT016"
"6@IMT017_600","Le Sibille 1","43.6668461707889","11.2182812990926","6@IMT017"
"6@IMT018_600","La Casina 1","43.6668591473339","11.2268043290826","6@IMT018"
"6@IMT019_600","La Casina 2","43.6667194921894","11.2269895514423","6@IMT019"
"6@IMT01B_600","I Bottai 1","43.725524451859","11.2248974732386","6@IMT01B"
"6@IMT020_600","Ponte Cappello 2","43.6622158941905","11.2401949385922","6@IMT020"
"6@IMT021_600","Ferrone Sannini 1","43.6587559300635","11.2504668338625","6@IMT021"
"6@IMT022_600","Ferrone Sannini 2","43.6586984302367","11.2507181296917","6@IMT022"
"6@IMT023_600","Ferrone 1","43.6583684344903","11.2577796644636","6@IMT023"
"6@IMT024_600","Ferrone 2","43.658388403368","11.2575545567885","6@IMT024"
"6@IMT032_600","Le Rose 1","43.7208492079511","11.2237256796506","6@IMT032"
"6@IMT035_600","I Bottai","43.7255210593971","11.2250115678333","6@IMT035"
"6@IMT041_600","Falciani Hofel 2","43.6735979154388","11.2152486010315","6@IMT041"
"6@IMT045_600","I Meccoli","43.6964789987692","11.2507708788833","6@IMT045"
"6@IMT061_600","Impruneta Piazza Buondelmonti 1","43.6857062191809","11.2544315123767","6@IMT061"
"6@IMT062_600","Colombaione 1","43.6665001675191","11.23125813446","6@IMT062"
"6@IMT068_600","Porcinaia 1","43.6747423849771","11.2693460051096","6@IMT068"
"6@IMT069_600","Ferrone Impruneta 2","43.6837063941038","11.2562484649644","6@IMT069"
"6@IMT071_600","Prachatice Ferrone 1","43.6777101710798","11.2575608071924","6@IMT071"
"6@IMT073_600","Fornace Poggi 2","43.6901843432551","11.2430366233519","6@IMT073"
"6@IMT074_600","Impruneta La Presura 2","43.6773169022009","11.263003505034","6@IMT074"
"6@IMT075_600","Impruneta La Presura 1","43.6771711187619","11.2632224342092","6@IMT075"
"6@IMT076_600","Prachatice Pinetina 2","43.6772414310196","11.2597475139944","6@IMT076"
"6@IMT077_600","Ferrone Fornaci 1","43.6792245008558","11.2565986120133","6@IMT077"
"6@IMT078_600","Ferrone Impruneta 1","43.6834548110055","11.2559760128758","6@IMT078"
"6@IMT079_600","Impruneta Viale Libertà 2","43.6877158797999","11.2523925800066","6@IMT079"
"6@IMT080_600","Ferrone Fornaci 2","43.6793133525099","11.2567224028402","6@IMT080"
"6@IMT081_600","Convento Suore 1","43.6918891364325","11.2346396014679","6@IMT081"
"6@IMT082_600","Bagnolo Cimitero 1","43.6924601509237","11.2267075221318","6@IMT082"
"6@IMT083_600","Bagnolo 1","43.6957741995725","11.219882977354","6@IMT083"
"6@IMT084_600","Tavarnuzze Montebuoni 2","43.7056582666379","11.2210039532562","6@IMT084"
"6@IMT085_600","Tavarnuzze","43.7105792356684","11.218929843022","6@IMT085"
"6@IMT096_600","Prachatice Pinetina 1","43.6771913014693","11.2598921377147","6@IMT096"
"6@IMT097_600","Monte S. Antonio","43.6916846951396","11.2542403765457","6@IMT097"
"6@IMT098_600","Prachatice Ferrone 2","43.6777330400419","11.257715739534","6@IMT098"
"6@IMT099_600","Montebuoni","43.7107780419757","11.2193327578025","6@IMT099"
"6@IMT100_600","Tavarnuzze Montebuoni 1","43.7058223906739","11.2213148341808","6@IMT100"
"6@IMT101_600","Montebuoni 1","43.6983420398441","11.2191686486862","6@IMT101"
"6@IMT102_600","Bagnolo 2","43.6941214772597","11.2207688940315","6@IMT102"
"6@IMT103_600","Bagnolo Cimitero 2","43.6922937206362","11.2268575828587","6@IMT103"
"6@IMT104_600","Convento Suore 2","43.6918261400104","11.2347808249991","6@IMT104"
"6@IMT105_600","Fornace Poggi 1","43.6905596466401","11.2423056400464","6@IMT105"
"6@IMT107_600","Impruneta Piazza Buondelmonti 2","43.6855832141266","11.2544642484808","6@IMT107"
"6@IMT114_600","Colombaione 2","43.6664327161358","11.2313527504342","6@IMT114"
"6@IMT119_600","Ponte Cappello 1","43.6621830070291","11.2403271042353","6@IMT119"
"6@IMT122_600","Montebuoni 2","43.6985521427485","11.2193469101462","6@IMT122"
"6@IMT126_600","Impruneta Viale Libertà 1","43.6877276796493","11.2524798493529","6@IMT126"
"6@IMT226_600","Porcinaia 2","43.674819222359","11.2691039083168","6@IMT226"
"6@IMT228_600","Le Rose","43.720583143815","11.2237443508559","6@IMT228"
"6@IMT492_600","Impruneta","43.6846576489464","11.257001930651","6@IMT492"
"6@IMT49B_600","Impruneta Piazza Accursio","43.6847039835047","11.2569217967686","6@IMT49B"
"6@PO51B2_600","Prato","43.8855628800306","11.09711585928","6@PO51B2"
"6@PO_001_600","La Macine 2","43.8657673896375","11.1302385583915","6@PO_001"
"6@PO_002_600","Firenze 2","43.8635937664392","11.1339250393612","6@PO_002"
"6@PO_003_600","La Querce 2","43.8617430094853","11.137349908847","6@PO_003"
"6@PO_004_600","Il Rosi 2","43.858904503675","11.1417339010131","6@PO_004"
"6@PO_005_600","La Querce 1","43.8616089143293","11.1373998676082","6@PO_005"
"6@PO_006_600","Firenze 11","43.8634288618578","11.1341013332417","6@PO_006"
"6@PO_007_600","La Macine 1","43.8651856473086","11.1310116463712","6@PO_007"
"6@PO_008_600","Firenze 9","43.8672871696244","11.1273298707481","6@PO_008"
"6@PO_009_600","Marconi 4","43.8622172378287","11.1191548307581","6@PO_009"
"6@PO_010_600","Marconi 2","43.8568794886604","11.1226794259691","6@PO_010"
"6@PO_011_600","Marconi 3","43.8562787852268","11.1229456516851","6@PO_011"
"6@PO_012_600","Marconi 1","43.8615203887825","11.1193772647405","6@PO_012"
"6@PO_013_600","Firenze 4","43.8671348293396","11.1277810592187","6@PO_013"
"6@PO_014_600","Firenze 5","43.8696714222207","11.123852518442","6@PO_014"
"6@PO_015_600","Firenze 8","43.8700498147838","11.1233305650151","6@PO_015"
"6@PO_016_600","Firenze 10","43.8712439601773","11.1210612212273","6@PO_016"
"6@PO_017_600","Firenze 3","43.8717154275405","11.1196956131002","6@PO_017"
"6@PO_018_600","Ponte Alla Vittoria 2","43.8770722662903","11.1072336340497","6@PO_018"
"6@PO_019_600","Ponte Alla Vittoria 1","43.8770857445686","11.1071664762419","6@PO_019"
"6@PO_020_600","Stadio 1","43.8745643370961","11.1093718028848","6@PO_020"
"6@PO_021_600","Stadio 2","43.8745497515046","11.1095083211162","6@PO_021"
"6@PO_022_600","Firenze 1","43.8737023382327","11.1119550546999","6@PO_022"
"6@PO_023_600","Firenze 12","43.8737775991374","11.1119213712511","6@PO_023"
"6@PO_024_600","Ponte Petrino 1","43.8730822213198","11.1154708978527","6@PO_024"
"6@PO_025_600","Ponte Petrino 2","43.8730607779057","11.115739095168","6@PO_025"
"6@PO_026_600","Istituto Buzzi","43.870200206831","11.11489375102","6@PO_026"
"6@PO_027_600","Istituto Buzzi","43.8697636338662","11.1145629449653","6@PO_027"
"6@PO_028_600","Montegrappa 16","43.8766350739186","11.1050157366732","6@PO_028"
"6@PO_029_600","Montegrappa 14","43.8737097649637","11.1078142672931","6@PO_029"
"6@PO_030_600","Montegrappa 12","43.8729319024675","11.1085589819482","6@PO_030"
"6@PO_031_600","Montegrappa 10","43.8706106430323","11.1107772680287","6@PO_031"
"6@PO_032_600","Montegrappa 8","43.8688466836144","11.1125800028748","6@PO_032"
"6@PO_033_600","Montegrappa 5","43.8658158980085","11.1154730136608","6@PO_033"
"6@PO_034_600","Montegrappa 7","43.863709242255","11.1176131360613","6@PO_034"
"6@PO_035_600","Repubblica 1","43.8718596432034","11.1153448694815","6@PO_035"
"6@PO_036_600","Prato Stazione Fs 1","43.8785227059671","11.1090473311172","6@PO_036"
"6@PO_042_600","Ferrucci 5","43.8719229988592","11.1072699912461","6@PO_042"
"6@PO_043_600","Ferrucci 3","43.8731006760493","11.1056033030756","6@PO_043"
"6@PO_044_600","Ferrucci 1","43.8750186753683","11.1033207510486","6@PO_044"
"6@PO_045_600","Ferrucci 7","43.8699680077276","11.1090404914264","6@PO_045"
"6@PO_046_600","Ferrucci 9","43.8682243280162","11.1100699979386","6@PO_046"
"6@PO_048_600","Santa Gonda","43.8693620277249","11.1104764405648","6@PO_048"
"6@PO_049_600","Mercatale 2","43.8814174765532","11.1011436766786","6@PO_049"
"6@PO_050_600","Passerella","43.8838093369281","11.0995475589714","6@PO_050"
"6@PO_051_600","Prato","43.8855362224897","11.0971064209996","6@PO_051"
"6@PO_052_600","San Marco 1","43.8774937387779","11.103030585821","6@PO_052"
"6@PO_054_600","Santa Margherita","43.8826215248377","11.0989091968681","6@PO_054"
"6@PO_055_600","San Marco 2","43.8776754940024","11.1027677551633","6@PO_055"
"6@PO_056_600","Montegrappa 6","43.867424431641","11.1140002190435","6@PO_056"
"6@PO_057_600","Mercatale 1","43.8803804462683","11.100968551573","6@PO_057"
"6@PO_058_600","Serraglio","43.8843180987723","11.0985442002957","6@PO_058"
"6@PO_060_600","Montegrappa 3","43.8673655357937","11.1138647291605","6@PO_060"
"6@PO_062_600","Montegrappa 4","43.8660196656277","11.1153892541466","6@PO_062"
"6@PO_063_600","Montegrappa 2","43.8638458953812","11.1175849988574","6@PO_063"
"6@PO_064_600","Galcianese 12","43.8811388159481","11.0866842026966","6@PO_064"
"6@PO_065_600","Galcianese 8","43.8777803574625","11.0812167668641","6@PO_065"
"6@PO_066_600","Europa 1","43.8771791822564","11.1060689776853","6@PO_066"
"6@PO_067_600","Reggiana 10","43.8739220880107","11.0732241623016","6@PO_067"
"6@PO_068_600","Di San Giusto 8","43.8765853196993","11.0797297247505","6@PO_068"
"6@PO_069_600","Galcianese 10","43.8791053746271","11.082951243411","6@PO_069"
"6@PO_070_600","Plesso Scolastico Via Reggiana","43.8758418010253","11.0683205290251","6@PO_070"
"6@PO_071_600","Ferrucci 11","43.8662183841715","11.1114696504178","6@PO_071"
"6@PO_074_600","Galcianese 14","43.8806936137179","11.0886292654922","6@PO_074"
"6@PO_077_600","Sacra Famiglia","43.8740007418925","11.1167202604045","6@PO_077"
"6@PO_078_600","Borgo Valsugana 1","43.8760534187246","11.1149075508009","6@PO_078"
"6@PO_079_600","Borgo Valsugana 3","43.8776525154845","11.1134625442746","6@PO_079"
"6@PO_080_600","Liceo Copernico","43.8791504921787","11.1121194405894","6@PO_080"
"6@PO_081_600","Sem Benelli 1","43.88189449286","11.1098616801711","6@PO_081"
"6@PO_082_600","Rosmini","43.8832596115411","11.1072752510787","6@PO_082"
"6@PO_083_600","Machiavelli 2","43.8805767497011","11.106300735147","6@PO_083"
"6@PO_086_600","Montegrappa 1","43.8685864752189","11.1127363265813","6@PO_086"
"6@PO_087_600","Europa 2","43.8771861785495","11.1057090145148","6@PO_087"
"6@PO_091_600","Cavour 3","43.8824416481079","11.090914640677","6@PO_091"
"6@PO_092_600","Pomeria 1","43.8768357859834","11.1012685062107","6@PO_092"
"6@PO_093_600","Pomeria 3","43.8760705317609","11.0987934924297","6@PO_093"
"6@PO_094_600","Pomeria 5","43.8756644554606","11.0947727177173","6@PO_094"
"6@PO_095_600","Cavour 1","43.8790058505686","11.0890606384611","6@PO_095"
"6@PO_098_600","Galcianese 1","43.8810403511878","11.0879634882817","6@PO_098"
"6@PO_099_600","Galcianese 3","43.8788362477821","11.0825175412744","6@PO_099"
"6@PO_100_600","Di San Giusto 1","43.8768421107784","11.0797833435672","6@PO_100"
"6@PO_102_600","Reggiana 8","43.8748108581821","11.0708569383338","6@PO_102"
"6@PO_103_600","Plesso Scolastico Via Reggiana","43.8758922777819","11.0684515950048","6@PO_103"
"6@PO_104_600","Reggiana 3","43.8748915654823","11.0708875354356","6@PO_104"
"6@PO_105_600","Reggiana 1","43.8740242596579","11.0732343082397","6@PO_105"
"6@PO_106_600","Colombo 2","43.881585405599","11.0865154460567","6@PO_106"
"6@PO_107_600","Dossetti 1","43.8821889986025","11.0821878727542","6@PO_107"
"6@PO_108_600","Plesso Scolastico Via Dossetti","43.88200636248","11.0823287665207","6@PO_108"
"6@PO_109_600","Plesso Scolastico Via Dossetti","43.8807382981456","11.0792855999391","6@PO_109"
"6@PO_110_600","Dossetti 2","43.8807001380663","11.0794035194622","6@PO_110"
"6@PO_112_600","Galcianese 5","43.878285728599","11.0785361012353","6@PO_112"
"6@PO_113_600","Porta Leone 2","43.8801897642988","11.0893265101669","6@PO_113"
"6@PO_114_600","Firenze 6","43.8688639124541","11.1250812081468","6@PO_114"
"6@PO_115_600","Firenze 7","43.8689340101361","11.1247475669905","6@PO_115"
"6@PO_XXX_600","Rimini 2","43.8775749805207","11.0719084729469","6@PO_XXX"
"6@SCP001_600","Falciani Mulino 1","43.6734349230264","11.2112992166113","6@SCP001"
"6@SCP002_600","Falciani Mulino 2","43.673427121675","11.2114197349441","6@SCP002"
"6@SCP003_600","Bivio Montecapri 1","43.6693930965904","11.2063531428342","6@SCP003"
"6@SCP004_600","Bivio Montecapri 2","43.6692342990041","11.2064170315329","6@SCP004"
"6@SCP005_600","Vannina 1","43.6656235572556","11.2057925666068","6@SCP005"
"6@SCP006_600","Vannina 2","43.6655456446231","11.2058641295104","6@SCP006"
"6@SCP007_600","San Casciano Osp. S. Giuseppe 2","43.6626217083345","11.1915786221948","6@SCP007"
"6@SCP008_600","San Casciano Stazione 1","43.6584479103657","11.1884934543391","6@SCP008"
"6@SCP009_600","San Casciano Autostazione","43.6558348036927","11.184881853803","6@SCP009"
"6@SCP010_600","Bivio Querceto 2","43.6386227508405","11.265192970622","6@SCP010"
"6@SCP011_600","San Casciano Giardini 1","43.6564980241977","11.1874930094807","6@SCP011"
"6@SCP044_600","Bivio Querceto 1","43.6383989768747","11.2654307691047","6@SCP044"
"6@SCP047_600","Gabbiano 1","43.6328520001692","11.2714128470856","6@SCP047"
"6@SCP048_600","Gabbiano 2","43.6326928036309","11.2714852454265","6@SCP048"
"6@SCP073_600","San Casciano Osp. S. Giuseppe 1","43.6629223830377","11.1914307049652","6@SCP073"
"6@SCP190_600","San Casciano Stazione 2","43.6585823124379","11.1888669754597","6@SCP190"
"6@SCP213_600","San Casciano Bv. Mercatale 2","43.6553607066947","11.187349142688","6@SCP213"
"6@SFN010_600","Giulio Cesare","43.8377338061488","11.1922212127764","6@SFN010"
"6@SFN017_600","Sesto Via Di Calenzano 1","43.8422046299273","11.1904286392957","6@SFN017"
"6@SFN018_600","Sesto Di Vittorio","43.8431010944381","11.1868012124795","6@SFN018"
"6@SFN020_600","Pratese Nievo","43.8418000071585","11.186081690302","6@SFN020"
"6@SFN021_600","Pratese 02","43.8403516141346","11.1888140141808","6@SFN021"
"6@SFN022_600","Mazzini 04","43.8359056364442","11.1922130844029","6@SFN022"
"6@SFN023_600","Sesto Fs","43.8336770270976","11.1927614318152","6@SFN023"
"6@SFN025_600","Togliatti","43.8362241753017","11.1831446029581","6@SFN025"
"6@SFN032_600","Giulio Cesare","43.8377216039112","11.1922987553963","6@SFN032"
"6@SFN044_600","Parri","43.840389288637","11.1757101917692","6@SFN044"
"6@SPR012_600","La Torre","43.9611552687242","11.356403653802","6@SPR012"
"6@SPR039_600","La Torre Cimitero","43.9636210575291","11.3388984414874","6@SPR039"
"6@SSV010_600","San Piero A Sieve Fs","43.9581213136567","11.3224902728103","6@SSV010"
"6@SSV014_600","Bivio Ischietti","43.9550648315804","11.3060392619471","6@SSV014"
"6@SSV016_600","San Piero A Sieve","43.9631879026121","11.3269712125836","6@SSV016"
"6@SSV017_600","San Piero A Sieve","43.9633060878692","11.3271601413707","6@SSV017"
"6@SSV029_600","Chima","43.9617861075197","11.348699070604","6@SSV029"
"6@SSV030_600","Chima","43.9618777991926","11.3484563884702","6@SSV030"
"6@SSV031_600","La Torre Cimitero","43.9637250170163","11.3388162661596","6@SSV031"
"6@SSV032_600","La Torre 1","43.9620758617195","11.3454820789779","6@SSV032"
"6@SSV033_600","La Torre 1","43.9621974381204","11.3447394956614","6@SSV033"
"6@SSV034_600","Corsini","43.9653211924072","11.3335350045405","6@SSV034"
"6@SSV035_600","Corsini","43.9654637816057","11.3333377814556","6@SSV035"
"6@SSV052_600","Bivio Ischietti","43.9556410358881","11.305699294999","6@SSV052"
"6@SSV072_600","Bivio Massorondinaio","43.9618593859089","11.3024652828512","6@SSV072"
"7@FM0264_600","Bigozzi","43.7896081846628","11.2548557608304","7@FM0264"
"7@FM2150_600","Morettini","43.8178836545096","11.1976474109592","7@FM2150"
"7@FM2151_600","Cnr","43.8178344295074","11.2001204837191","7@FM2151"
"7@FM8826_600","T2 Guidoni","43.7997373786759","11.2095743828785","7@FM8826"
"8@BAM002_600","Galliano 6_V","44.001167873919","11.285232866273","8@BAM002"
"8@BAM003_600","Galliano 6","44.0011524063701","11.2851059867166","8@BAM003"
"8@BAM004_600","Bosco Ai Frati_V","43.9863013950677","11.2878792920674","8@BAM004"
"8@BAM005_600","Bosco Ai Frati","43.9862965637151","11.2876350777245","8@BAM005"
"8@BAM006_600","Barberino Casello A1_V","43.9805470936271","11.2197701104131","8@BAM006"
"8@BAM007_600","Barberino Casello A1","43.9806686695182","11.2194302658834","8@BAM007"
"8@BAM008_600","Molino Ponte Al Sasso","43.980355300684","11.2214594264023","8@BAM008"
"8@BAM009_600","Molino Ponte Al Sasso_V","43.980267268983","11.2215108643962","8@BAM009"
"8@BAM010_600","Cavallina 0","43.9809450359791","11.2314681091697","8@BAM010"
"8@BAM011_600","Cavallina 0_V","43.9810489061754","11.231345072726","8@BAM011"
"8@BAM012_600","Cavallina 1","43.982392447743","11.2326492737276","8@BAM012"
"8@BAM013_600","Cavallina 1_V","43.9825572539268","11.2325777727375","8@BAM013"
"8@BAM014_600","Cavallina","43.984571974468","11.2332557025116","8@BAM014"
"8@BAM015_600","Cavallina_V","43.9846474565709","11.2331848407147","8@BAM015"
"8@BAM016_600","Bivio Ponticino","43.9881784747043","11.2332652902065","8@BAM016"
"8@BAM017_600","Bivio Ponticino_V","43.9882868456575","11.2332528951583","8@BAM017"
"8@BAM018_600","La Miniera_V","43.9920159339168","11.2366548941908","8@BAM018"
"8@BAM022_600","Galliano","44.0160007559124","11.2937398077992","8@BAM022"
"8@BAM023_600","Il Cornocchio_V","43.9605596275358","11.2145353404738","8@BAM023"
"8@BAM024_600","San Gavino","44.0373559020252","11.2528430092434","8@BAM024"
"8@BAM025_600","Montecarelli 1","44.0432474096697","11.258903346326","8@BAM025"
"8@BAM026_600","Montecarelli 1_V","44.0433444700536","11.2590031439747","8@BAM026"
"8@BAM027_600","Montecarelli_V","44.0508640715568","11.2610975759715","8@BAM027"
"8@BAM028_600","Montecarelli","44.0508021966839","11.2612556283967","8@BAM028"
"8@BAM029_600","Montecarelli Cimitero_V","44.0598952171823","11.2629436778465","8@BAM029"
"8@BAM030_600","Montecarelli Cimitero","44.0596246224618","11.2630825612936","8@BAM030"
"8@BAM031_600","Poggio Bianco_V","44.0650229106329","11.266905532123","8@BAM031"
"8@BAM032_600","Poggio Bianco","44.0652102118185","11.2670737544101","8@BAM032"
"8@BAM033_600","Barberino Scuole Medie","44.0045016229535","11.2375391821005","8@BAM033"
"8@BAM034_600","Bivio La Ruzza - Futa","44.0125557584202","11.2369015110374","8@BAM034"
"8@BAM035_600","Santa Lucia Bivio Panna","44.0710545258909","11.2701212114943","8@BAM035"
"8@BAM036_600","Santa Lucia Bivio Panna_V","44.0710310815712","11.2702453131817","8@BAM036"
"8@BAM037_600","Santa Lucia","44.0730289568958","11.2700007913037","8@BAM037"
"8@BAM038_600","Santa Lucia_V","44.0728628456195","11.2706440500841","8@BAM038"
"8@BAM039_600","Monte Di Fo","44.0775571204331","11.2814346848789","8@BAM039"
"8@BAM040_600","Monte Di Fo_V","44.0776034636314","11.2815822722726","8@BAM040"
"8@BAM042_600","Lo Scalpellino","44.0186633921114","11.2392092896834","8@BAM042"
"8@BAM043_600","Lo Scalpellino_V","44.0185619439277","11.2390063478914","8@BAM043"
"8@BAM044_600","Barberino Repubblica","44.0048128077645","11.238525184154","8@BAM044"
"8@BAM045_600","Barberino Via Repubblica_V","44.0047707498208","11.2384477634136","8@BAM045"
"8@BAM046_600","Barberino Bolognese","44.0067755860898","11.2378731809672","8@BAM046"
"8@BAM047_600","Bivio La Ruzza","44.0124052534707","11.237051845877","8@BAM047"
"8@BAM049_600","Galliano Il Monte","44.0115565266784","11.2877656349991","8@BAM049"
"8@BAM050_600","Campoteso","44.0086289545276","11.2876088884536","8@BAM050"
"8@BAM051_600","Gabbianello","43.9902264928363","11.2890178325988","8@BAM051"
"8@BAM052_600","Gabbianello_V","43.9900299212239","11.2891213843466","8@BAM052"
"8@BAM053_600","La Miniera","43.9920384092371","11.2369093937299","8@BAM053"
"8@BAM054_600","Bivio Maschere","43.9864541877537","11.2727237321636","8@BAM054"
"8@BAM055_600","Cafaggiolo","43.9658760332185","11.2950741075902","8@BAM055"
"8@BAM056_600","Cafaggiolo_V","43.9658997679398","11.2952370701739","8@BAM056"
"8@BAM058_600","Bivio Latera","43.9797667842654","11.2257700129222","8@BAM058"
"8@BAM059_600","Bivio Latera_V","43.9796641348146","11.2255997264287","8@BAM059"
"8@BAM060_600","San Gavino_V","44.0372550655694","11.2529343486435","8@BAM060"
"8@BAM063_600","Spedaletto Cavallina_V","43.9762669294508","11.2211006906451","8@BAM063"
"8@BAM064_600","Spedaletto Cavallina","43.9761403217403","11.2221848736519","8@BAM064"
"8@BAM065_600","Santa Lucia 1","44.0741030196476","11.272203789221","8@BAM065"
"8@BAM066_600","Santa Lucia 1_V","44.0741632836046","11.2720256446924","8@BAM066"
"8@BAM068_600","Galliano 5","44.0053422289267","11.2854652927736","8@BAM068"
"8@BAM069_600","Barberino Centro Cavour","43.9994568764861","11.2388032258288","8@BAM069"
"8@BAM070_600","Barberino Via Gramsci","43.9965996525638","11.2401180557777","8@BAM070"
"8@BAM071_600","Barberino Via Gramsci_V","43.9972871810577","11.2397444359124","8@BAM071"
"8@BAM072_600","Le Fratine_V","43.9945991311342","11.2401874288092","8@BAM072"
"8@BAM073_600","Le Fratine","43.9945767132848","11.2403434737611","8@BAM073"
"8@BAM074_600","Moriano_V","43.987520957123","11.2569211477806","8@BAM074"
"8@BAM075_600","Moriano","43.9878781485552","11.2562043909462","8@BAM075"
"8@BAM076_600","Bivio Maschere_V","43.9847021760017","11.2738990980056","8@BAM076"
"8@BAM077_600","L'Apparita_V","44.0869023306757","11.2809605886157","8@BAM077"
"8@BAM078_600","Scuola Mazzini","44.004712359985","11.2387258143778","8@BAM078"
"8@BAM079_600","Bilancino 2_V","43.9690430404813","11.2922527283428","8@BAM079"
"8@BAM080_600","Bilancino 2","43.969046209556","11.2924626515837","8@BAM080"
"8@BAM081_600","Galliano S.P. 37","44.0165458782422","11.2952498275736","8@BAM081"
"8@BAM082_600","Galliano S.P. 37_V","44.0165633315216","11.2951081513868","8@BAM082"
"8@BAM085_600","Galliano 5_V","44.0053149734928","11.2856215368749","8@BAM085"
"8@BAM087_600","Galliano Il Monte_V","44.0114844769302","11.2875331402259","8@BAM087"
"8@BAM088_600","Campoteso_V","44.0086916863212","11.2874975357958","8@BAM088"
"8@BAM089_600","Il Cornocchio","43.9611120167377","11.2151056227302","8@BAM089"
"8@BAM090_600","Outlet","43.9847380036269","11.2180555272155","8@BAM090"
"8@BAM091_600","Casa Del Bosco_V","43.9661195925904","11.2166501977422","8@BAM091"
"8@BAM092_600","Casa Del Bosco","43.966237920695","11.2167323838758","8@BAM092"
"8@BAM093_600","Il Balzo","43.9738251720934","11.2179684524048","8@BAM093"
"8@BAM094_600","Il Balzo_V","43.9737665424339","11.2175984949532","8@BAM094"
"8@BAM097_600","Barberino M.Llo Bouturlin_V","44.0090262065522","11.237693761186","8@BAM097"
"8@BAM104_600","Barberino Via Del Lavoro 1","43.9971894122549","11.2421066872572","8@BAM104"
"8@BAM106_600","Coop","44.0013905914639","11.2412278004401","8@BAM106"
"8@BAM107_600","Barberino Centro Vittorio","43.9986630619941","11.2413541368753","8@BAM107"
"8@BAM108_600","Barberino Bolognese_V","44.0070294566461","11.2379247049557","8@BAM108"
"8@BAM109_600","Barberino M.Llo Bouturlin","44.0089348716561","11.2377786436619","8@BAM109"
"8@BAM113_600","Bivio Galliano_V","43.9784327859575","11.2885211670685","8@BAM113"
"8@BAM114_600","Bivio Galliano","43.9784251905667","11.2884104721226","8@BAM114"
"8@BAM115_600","Erbaia_V","44.0339449681464","11.2618687132732","8@BAM115"
"8@BAM116_600","Erbaia","44.0338283510785","11.2619946863974","8@BAM116"
"8@BAM117_600","Colle Barucci","43.9883504579955","11.2731346209823","8@BAM117"
"8@BAM118_600","Colle Barucci_V","43.9883609941581","11.2729897481796","8@BAM118"
"8@BAM119_600","Villanova_V","43.9907510511774","11.2711493953467","8@BAM119"
"8@BAM120_600","Villanova","43.9908812532242","11.2711440748292","8@BAM120"
"8@BAM121_600","Le Maschere","43.9935610613902","11.2690149413706","8@BAM121"
"8@BAM122_600","Le Maschere_V","43.9932168423455","11.2689619123378","8@BAM122"
"8@BAM123_600","Le Maschere 1","43.9982668650788","11.2690459361404","8@BAM123"
"8@BAM124_600","Le Maschere 1_V","43.9986687141877","11.2690191645114","8@BAM124"
"8@BAM125_600","Le Croci","44.0088228730071","11.2716839118628","8@BAM125"
"8@BAM126_600","Le Croci_V","44.0086676702211","11.2715769440142","8@BAM126"
"8@BAM127_600","Casone","44.0152530307183","11.2705927355355","8@BAM127"
"8@BAM128_600","Casone_V","44.0151915856256","11.2703549128711","8@BAM128"
"8@BAM144_600","Barberino Via Del Lavoro 1_V","43.9972267140775","11.241985993271","8@BAM144"
"8@BAM146_600","Barberino Centro Cavour","43.999190061292","11.238790245975","8@BAM146"
"8@BAM147_600","San Michele","44.0475388725577","11.259579852291","8@BAM147"
"8@BAM148_600","San Michele_V","44.0473619167675","11.2592635593658","8@BAM148"
"8@BAM149_600","Gabbianello Sopra","43.9961868337803","11.2888218665747","8@BAM149"
"8@BAM150_600","Gabbianello Sopra_V","43.9962214350698","11.2890135763918","8@BAM150"
"8@BAM151_600","Bivio Carniano","44.0267835661594","11.2636577351046","8@BAM151"
"8@BAM152_600","Bivio Carniano_V","44.0269514380398","11.2639366479415","8@BAM152"
"8@BAM153_600","Il Paretaio_V","44.0368347304839","11.2625515292889","8@BAM153"
"8@BAM154_600","Il Paretaio","44.0363404651538","11.2628238098383","8@BAM154"
"8@BAM155_600","Barberino Centro Vittorio","43.9986516474879","11.2415091097743","8@BAM155"
"8@BAM156_600","Via 1 Maggio","43.9999581600989","11.2406802638881","8@BAM156"
"8@BAM157_600","Barberino Via Del Lavoro 3_V","43.9987710583272","11.2426404046769","8@BAM157"
"8@BAM158_600","Galliano Allev. Il Monte","44.0147057444091","11.2923630962803","8@BAM158"
"8@BAM159_600","Galliano Allev. Il Monte_V","44.0147387939891","11.2919186206237","8@BAM159"
"8@BCN001_600","Magazzino Expert","43.5045186005599","11.6102891899077","8@BCN001"
"8@BEL001_600","Barberino V. Elsa Pineta_V","43.544969071194","11.1742488895714","8@BEL001"
"8@BEL002_600","Barberino V. Elsa Pineta","43.5448057194578","11.1742311329566","8@BEL002"
"8@BEL003_600","Podere Il Piano","43.5322934435309","11.1455179653347","8@BEL003"
"8@BEL004_600","Barberino V. Elsa Farmacia_V","43.5402176573003","11.1706682903322","8@BEL004"
"8@BEL005_600","Barberino V. Elsa Monumento","43.540167427322","11.1707198327994","8@BEL005"
"8@BEL006_600","La Portaccia","43.5295105794324","11.1691118197619","8@BEL006"
"8@BEL007_600","La Portaccia_V","43.5299067852619","11.1690861775334","8@BEL007"
"8@BEL008_600","San Filippo","43.5257702728259","11.1718434629378","8@BEL008"
"8@BEL009_600","San Filippo_V","43.5256790868326","11.1720459718916","8@BEL009"
"8@BEL010_600","Petrognano 1_V","43.5361396845668","11.1419479996596","8@BEL010"
"8@BEL011_600","Petrognano","43.5360604934783","11.1419120888283","8@BEL011"
"8@BEL012_600","Podere Il Piano_V","43.5331442710408","11.1452417196933","8@BEL012"
"8@BEL013_600","Barberino Val D' Elsa Centro_V","43.5418524020487","11.1710185800884","8@BEL013"
"8@BEL015_600","La Sosta Del Papa","43.5118478966212","11.1624736912121","8@BEL015"
"8@BEL016_600","La Sosta Del Papa_V","43.5117124033911","11.1624966866682","8@BEL016"
"8@BEL017_600","Cipressino 1","43.492902888375","11.1515446789825","8@BEL017"
"8@BEL018_600","Cipressino 2","43.490794729054","11.1509889788023","8@BEL018"
"8@BEL019_600","S. Martino","43.5014561016189","11.1549160870202","8@BEL019"
"8@BEL020_600","S. Martino_V","43.5013320593177","11.1548809977021","8@BEL020"
"8@BEL021_600","Drove 1","43.487558455659","11.1504338428305","8@BEL021"
"8@BEL023_600","Barberino Val D'Elsa Centro","43.5429462122873","11.1727204801978","8@BEL023"
"8@BEL024_600","Cipressino 1_V","43.4929855345395","11.1517843274927","8@BEL024"
"8@BEL025_600","Cipressino 2_V","43.490911728285","11.1508689803856","8@BEL025"
"8@BEL026_600","Marcialla Centro","43.5743269202579","11.1406385909074","8@BEL026"
"8@BEL027_600","Marcialla_V","43.5736425184916","11.1421918094903","8@BEL027"
"8@BEL028_600","Marcialla","43.5735449529803","11.1422475449292","8@BEL028"
"8@BEL029_600","Marcialla Il Valico_V","43.5701319125507","11.1462719385918","8@BEL029"
"8@BRP001_600","Candeli","43.7629317552631","11.3354734113244","8@BRP001"
"8@BRP002_600","Cartiera_V","43.7642866288411","11.3392465567953","8@BRP002"
"8@BRP003_600","Santa Monica_V","43.7697307288191","11.3498518588492","8@BRP003"
"8@BRP004_600","Vallina","43.7717182527257","11.3586433759729","8@BRP004"
"8@BRP005_600","Il Roseto_V","43.7736182629112","11.362526250709","8@BRP005"
"8@BRP006_600","Vallina Zona Artigianale_V","43.7780393976024","11.3639244073388","8@BRP006"
"8@BRP007_600","Vallina Zona Artigianale","43.7780086804378","11.3637902749499","8@BRP007"
"8@BRP008_600","La Nave","43.7828106835045","11.3697434547547","8@BRP008"
"8@BRP009_600","Ponte A Ema Cimitero","43.7375699813424","11.2973405630403","8@BRP009"
"8@BRP010_600","Piani Di Rosano","43.7753766141664","11.4104269415046","8@BRP010"
"8@BRP011_600","San Martino A Strada","43.7134951536168","11.2909217809475","8@BRP011"
"8@BRP012_600","Istituto Volta-Gobetti","43.7553032657394","11.3179155664687","8@BRP012"
"8@BRP013_600","Il Poggio","43.7483543445832","11.3288838700317","8@BRP013"
"8@BRP014_600","Il Poggio_V","43.7484736790258","11.3286832597059","8@BRP014"
"8@BRP015_600","Meoste_V","43.7477935123537","11.3357084716516","8@BRP015"
"8@BRP016_600","Meoste","43.7478003162036","11.3355738572341","8@BRP016"
"8@BRP017_600","La Croce A Varliano_V","43.7459400380617","11.3381033577827","8@BRP017"
"8@BRP018_600","Croce A Varliano","43.7458937073884","11.3382818833851","8@BRP018"
"8@BRP019_600","La Fonte_V","43.7430825185243","11.3415621251677","8@BRP019"
"8@BRP020_600","La Fonte","43.743071060464","11.341422711653","8@BRP020"
"8@BRP021_600","Osteria Nuova_V","43.7296460787445","11.3461409446396","8@BRP021"
"8@BRP022_600","Sorgane","43.7543464384161","11.3064713188159","8@BRP022"
"8@BRP023_600","Osteria Nuova","43.7297880503071","11.3461153250516","8@BRP023"
"8@BRP024_600","Pieraccioni","43.7299423971463","11.3552327263904","8@BRP024"
"8@BRP025_600","Istituto Volta-Gobetti","43.7555458609585","11.3178421094355","8@BRP025"
"8@BRP026_600","Cacio","43.7311560396851","11.3593837304188","8@BRP026"
"8@BRP027_600","Cacio_V","43.731187021876","11.3594922246931","8@BRP027"
"8@BRP028_600","La Gambaccina","43.7312054660847","11.3638262599189","8@BRP028"
"8@BRP029_600","La Gambaccina_V","43.7312483980181","11.3638095731572","8@BRP029"
"8@BRP030_600","Quattro Vie","43.732730879207","11.3686797487851","8@BRP030"
"8@BRP031_600","Quattro Vie_V","43.7326814156324","11.3688290331708","8@BRP031"
"8@BRP032_600","Bivio Nuovo Ranch","43.7343783460582","11.3763875168944","8@BRP032"
"8@BRP033_600","Bottega Nuova","43.730315122161","11.380255071374","8@BRP033"
"8@BRP034_600","Bottega Nuova_V","43.7303165115293","11.3801883895048","8@BRP034"
"8@BRP035_600","Fregiano","43.7235254146341","11.3818952207405","8@BRP035"
"8@BRP036_600","Fregiano_V","43.723530093127","11.3819903791739","8@BRP036"
"8@BRP037_600","Ponte A Ema Cimitero_V","43.7372321621468","11.2973449260122","8@BRP037"
"8@BRP038_600","S. Donato Collina_V","43.7210476817205","11.3819063726569","8@BRP038"
"8@BRP039_600","Grassina","43.723720095508","11.2937954298489","8@BRP039"
"8@BRP040_600","Grassina_V","43.7236169670316","11.294106705208","8@BRP040"
"8@BRP041_600","Bagno A Ripoli Scuole_V","43.7530771109846","11.315542287549","8@BRP041"
"8@BRP042_600","Bagno A Ripoli Scuole","43.7532339405436","11.3148942507411","8@BRP042"
"8@BRP043_600","Scolivigne Z. Artigianale_V","43.7081061047581","11.3028656152673","8@BRP043"
"8@BRP044_600","Scolivigne Z. Artigianale","43.707324572929","11.3046506341928","8@BRP044"
"8@BRP045_600","Capannuccia","43.7004629347441","11.3099966081723","8@BRP045"
"8@BRP046_600","Capannuccia_V","43.7004049810673","11.310097571239","8@BRP046"
"8@BRP047_600","Poggio Casciano","43.6958056849988","11.3228992372042","8@BRP047"
"8@BRP048_600","Poggio Casciano_V","43.6959155339476","11.3228104116991","8@BRP048"
"8@BRP049_600","Bivio Quarate","43.6921449746697","11.3284538973838","8@BRP049"
"8@BRP050_600","Bivio Quarate_V","43.6920858316819","11.3287162147478","8@BRP050"
"8@BRP051_600","Quarate","43.6882475407607","11.3350272863653","8@BRP051"
"8@BRP052_600","Quarate Rapale_V","43.6882322939507","11.3351609436278","8@BRP052"
"8@BRP053_600","Bivio Lizzano","43.6850193265457","11.3339466721105","8@BRP053"
"8@BRP054_600","Bivio Lizzano_V","43.6851725617212","11.3340615485568","8@BRP054"
"8@BRP057_600","Ponte A Ema Agip_V","43.7382119235938","11.2923376700377","8@BRP057"
"8@BRP058_600","Bagno A Ripoli","43.75246692926","11.3187810676345","8@BRP058"
"8@BRP059_600","Bagno A Ripoli_V","43.7521923633581","11.3194908632477","8@BRP059"
"8@BRP062_600","Ospedale Ponte A Niccheri","43.7323208590403","11.3057842839972","8@BRP062"
"8@BRP063_600","Ospedale Ponte A Niccheri","43.7325133829088","11.3052162864744","8@BRP063"
"8@BRP064_600","Grassina 1_Va","43.7274240912406","11.2943276869439","8@BRP064"
"8@BRP065_600","Grassina 1_Vb","43.7273323480331","11.2940047302859","8@BRP065"
"8@BRP067_600","San Martino 1_V","43.715175429754","11.2915397584388","8@BRP067"
"8@BRP068_600","San Martino","43.7120602719183","11.2903910778482","8@BRP068"
"8@BRP069_600","San Martino_V","43.7120224995159","11.290501226308","8@BRP069"
"8@BRP071_600","Ugolino_V","43.702478397122","11.2932771141887","8@BRP071"
"8@BRP084_600","Candeli_V","43.7627633095943","11.335473824208","8@BRP084"
"8@BRP085_600","Le Sassaie","43.7748442884449","11.4108915862491","8@BRP085"
"8@BRP086_600","Osteria Nuova 1","43.7292450444159","11.346242613141","8@BRP086"
"8@BRP087_600","Osteria Nuova 1_V","43.7291955362763","11.3463253563336","8@BRP087"
"8@BRP089_600","Antella","43.7270866419816","11.3204101391452","8@BRP089"
"8@BRP090_600","Antella_V","43.7273038089082","11.3220938841256","8@BRP090"
"8@BRP091_600","Ricceri","43.7171291892443","11.2991585424434","8@BRP091"
"8@BRP092_600","Ricceri_V","43.7173327142762","11.2994023714996","8@BRP092"
"8@BRP093_600","Bagno A Ripoli Rimaggio_V","43.7581991948827","11.3278626325879","8@BRP093"
"8@BRP094_600","Bv. Ponte A Niccheri","43.7347006172335","11.2966868538711","8@BRP094"
"8@BRP095_600","Ponte A Niccheri 1","43.7338967966665","11.2969951006932","8@BRP095"
"8@BRP096_600","Cartiera","43.7648691811751","11.3404109624769","8@BRP096"
"8@BRP097_600","Bagno A Ripoli Rimaggio","43.7581635093871","11.3276653540658","8@BRP097"
"8@BRP098_600","I Bassi","43.7337291294046","11.2979452876159","8@BRP098"
"8@BRP102_600","San Martino_R","43.7151816585238","11.2916780913942","8@BRP102"
"8@BRP103_600","Il Roseto","43.7743464121502","11.3625539631803","8@BRP103"
"8@BRP104_600","La Nave_V","43.7827046043919","11.3699990866693","8@BRP104"
"8@BRP105_600","Santa Monica","43.7697433282252","11.349601318376","8@BRP105"
"8@BRP106_600","I Bassi_V","43.7341175411778","11.2978871355633","8@BRP106"
"8@BRP111_600","Ghiacciaia","43.7213592081813","11.2974504702209","8@BRP111"
"8@BRP112_600","Ghiacciaia_V","43.7213294302572","11.2973373543315","8@BRP112"
"8@BRP113_600","Via Di Ritortoli","43.7467901508522","11.3132663941803","8@BRP113"
"8@BRP114_600","Antella Via Peruzzi_V","43.7285971906239","11.3312702001894","8@BRP114"
"8@BRP115_600","Antella Via Peruzzi 1","43.7282035302749","11.3382672790274","8@BRP115"
"8@BRP116_600","Antella Via Peruzzi 1_V","43.7282665784309","11.3384200879059","8@BRP116"
"8@BRP117_600","Via Di Ritortoli_V","43.7467712789887","11.313446931171","8@BRP117"
"8@BRP118_600","Antella Via Peruzzi","43.7286764493953","11.331357082917","8@BRP118"
"8@BRP121_600","Bivio Nuovo Ranch_V","43.7343190395825","11.3767584254471","8@BRP121"
"8@BRP122_600","La Cortaccia_V","43.7351678044685","11.3409203821204","8@BRP122"
"8@BRP123_600","La Cortaccia","43.7351317848286","11.3410524629549","8@BRP123"
"8@BRP124_600","I Renai_V","43.7835117833106","11.3951348201698","8@BRP124"
"8@BRP125_600","I Renai","43.7836601158153","11.3950725202194","8@BRP125"
"8@BRP126_600","Vallina_V","43.7716645343792","11.3590542746722","8@BRP126"
"8@BRP127_600","Maneggio","43.777944590575","11.4054857820042","8@BRP127"
"8@BRP128_600","Maneggio_V","43.7781466270357","11.4053755154095","8@BRP128"
"8@BRP129_600","Sassaie","43.7727116019657","11.4140733026916","8@BRP129"
"8@BRP130_600","Sassaie_V","43.7727790760766","11.4142209630426","8@BRP130"
"8@BRP131_600","Gualchiere","43.7869291542728","11.386911756588","8@BRP131"
"8@BRP132_600","Gualchiere_V","43.7868284927016","11.3871704120633","8@BRP132"
"8@BRP133_600","Querceto","43.77992734357","11.4011733292084","8@BRP133"
"8@BRP134_600","Querceto_V","43.7808810773447","11.4002874754372","8@BRP134"
"8@BSL001_600","Bivio Salaiole","43.9465818346629","11.3869206928176","8@BSL001"
"8@BSL002_600","Bivio Salaiole_V","43.9464881147736","11.3868171265785","8@BSL002"
"8@BSL003_600","Polcanto_V","43.8972414220019","11.3564018536826","8@BSL003"
"8@BSL004_600","I Due Cipressi","43.9249499758834","11.3502783072883","8@BSL004"
"8@BSL005_600","I Due Cipressi _V","43.9247012977621","11.3501124298097","8@BSL005"
"8@BSL006_600","Compostaggio","43.9326672149419","11.3493724254178","8@BSL006"
"8@BSL007_600","Compostaggio_V","43.9326815118742","11.3491978001946","8@BSL007"
"8@BSL008_600","Villa Poggiolo","43.9205321810515","11.350579172087","8@BSL008"
"8@BSL009_600","Villa Poggiolo_V","43.9204908177749","11.3508391130954","8@BSL009"
"8@BSL010_600","Faltona","43.9361367191292","11.3453594999689","8@BSL010"
"8@BSL011_600","Faltona_V","43.9363412024724","11.3451086424747","8@BSL011"
"8@BSL012_600","Faltona 1","43.9399696824722","11.3481150969009","8@BSL012"
"8@BSL013_600","Faltona 1_V","43.9399046179113","11.3483807941692","8@BSL013"
"8@BSL014_600","Ponte Serravalle","43.9442424912169","11.3599543071815","8@BSL014"
"8@BSL015_600","Ponte Serravalle_V","43.944238211852","11.3598171947506","8@BSL015"
"8@BSL016_600","Il Molino","43.9482758801213","11.3680473636765","8@BSL016"
"8@BSL017_600","Il Molino_V","43.9484267517357","11.3679268719413","8@BSL017"
"8@BSL018_600","La Brocchi","43.9456581967039","11.3753434695759","8@BSL018"
"8@BSL019_600","La Brocchi_V","43.9455898149186","11.375739620827","8@BSL019"
"8@BSL020_600","S. Giovanni","43.9439819579207","11.3826399256149","8@BSL020"
"8@BSL021_600","S. Giovanni_V","43.9440959298787","11.3824979429166","8@BSL021"
"8@BSL022_600","Capolinea Kennedy","43.952501026744","11.3986807824889","8@BSL022"
"8@BSL023_600","Borgo S.L. Pecori Giraldi 2","43.9535671777627","11.3931323906421","8@BSL023"
"8@BSL024_600","Borgo S.L. Iv Novembre","43.9568476245384","11.3896007746724","8@BSL024"
"8@BSL027_600","Borgo Repubblica","43.9586293235258","11.3838945476473","8@BSL027"
"8@BSL028_600","Borgo S.L. Usl","43.9592551643303","11.3834489501159","8@BSL028"
"8@BSL029_600","Le Pergole","43.9626964982065","11.3817642279606","8@BSL029"
"8@BSL030_600","Belvedere_V","43.9784178861001","11.3849264628742","8@BSL030"
"8@BSL031_600","Bivio Frescobaldi","43.9817567316675","11.3887424039254","8@BSL031"
"8@BSL032_600","Croce Di Collina","43.9903598095913","11.3958144135281","8@BSL032"
"8@BSL033_600","Belvedere","43.9781973165901","11.3847880888112","8@BSL033"
"8@BSL034_600","Luco Chisciano","43.9975909132216","11.3934811854073","8@BSL034"
"8@BSL035_600","Luco Quattro Strade","43.9992604128483","11.3948558855092","8@BSL035"
"8@BSL036_600","Luco Del Mugello","44.0010703965461","11.3967146213303","8@BSL036"
"8@BSL037_600","Fabbrica_V","44.0040964269782","11.4007993747254","8@BSL037"
"8@BSL038_600","Fabbrica","44.0039922608952","11.4002147307642","8@BSL038"
"8@BSL039_600","Grezzano 1","44.0102337782211","11.4040943839235","8@BSL039"
"8@BSL040_600","Grezzano 1_V","44.0102019399791","11.4039931763209","8@BSL040"
"8@BSL041_600","Battiloro","43.9648740792028","11.3970071691383","8@BSL041"
"8@BSL042_600","Battiloro_V","43.9648375466015","11.3969075374666","8@BSL042"
"8@BSL043_600","Panicaglia Centro_V","43.9825469925662","11.4069760516748","8@BSL043"
"8@BSL044_600","Panicaglia Centro","43.9825739772841","11.4068832531748","8@BSL044"
"8@BSL045_600","Panicaglia Sr302_V","43.984840168876","11.4081942296503","8@BSL045"
"8@BSL046_600","Panicaglia Sr302","43.9852228495476","11.4083628316909","8@BSL046"
"8@BSL047_600","Fabbroni","43.9864267298573","11.3929974618358","8@BSL047"
"8@BSL048_600","Fabbroni_V","43.9867489603519","11.393143215573","8@BSL048"
"8@BSL049_600","Ronta 5_V","43.9975292476712","11.4213455122223","8@BSL049"
"8@BSL050_600","Ronta 5","43.9973520366699","11.4212789359356","8@BSL050"
"8@BSL051_600","Ronta Pulicciano_V","43.999748165052","11.4249901608733","8@BSL051"
"8@BSL052_600","Ronta Pulicciano","43.9998624064753","11.4249354483251","8@BSL052"
"8@BSL053_600","Ronta Cimitero_V","44.0034206702668","11.4282299223458","8@BSL053"
"8@BSL054_600","Ronta Cimitero","44.0034628314648","11.4280889509885","8@BSL054"
"8@BSL055_600","Ronta San Donato","44.0059492407276","11.4324119974099","8@BSL055"
"8@BSL056_600","Ronta San Donato_V","44.0058981394457","11.4325920225088","8@BSL056"
"8@BSL059_600","Ronta Carabinieri","44.0075687494004","11.4347260222909","8@BSL059"
"8@BSL060_600","Via Iv Novembre Civ.56","43.9557153008563","11.3920000070689","8@BSL060"
"8@BSL061_600","Madonna Dei Tre Fiumi","44.0146435837825","11.4436704664354","8@BSL061"
"8@BSL062_600","Madonna Dei Tre Fiumi","44.0146520097698","11.4434281655505","8@BSL062"
"8@BSL063_600","Razzuolo","44.0316566263996","11.4682533824389","8@BSL063"
"8@BSL064_600","Ronta 193/197","44.0120144319608","11.4385645096432","8@BSL064"
"8@BSL065_600","Borgo San Lorenzo Fs","43.9595942666074","11.3803389348898","8@BSL065"
"8@BSL066_600","Bosso Di Sotto_V","43.9573152745364","11.3703834747426","8@BSL066"
"8@BSL067_600","Borgo S.L. Faentina_V","43.95704978305","11.3913238400932","8@BSL067"
"8@BSL068_600","Ronta 193/197_V","44.0121511341077","11.43913198413","8@BSL068"
"8@BSL069_600","Borgo San Lorenzo Scuole Caiani","43.9494517351162","11.4019208856905","8@BSL069"
"8@BSL070_600","Borgo San Lorenzo Via Caiani","43.9499835748244","11.4004019648743","8@BSL070"
"8@BSL071_600","I Cini","43.9158358645447","11.3528759951511","8@BSL071"
"8@BSL072_600","I Cini_V","43.9155556944297","11.352923486895","8@BSL072"
"8@BSL073_600","Via Iv Novembre Civ.81","43.9559673012352","11.391735620863","8@BSL073"
"8@BSL074_600","Via Kennedy 2_V","43.9539882933488","11.3960676958251","8@BSL074"
"8@BSL075_600","Via Kennedy 1","43.9527259905326","11.3994599287149","8@BSL075"
"8@BSL077_600","Borgo S.L. Sp551","43.9521276765266","11.3923663588646","8@BSL077"
"8@BSL078_600","Bosso Di Sotto","43.9573268658786","11.370519039394","8@BSL078"
"8@BSL079_600","Villa Martini","43.9469700648937","11.4069315662341","8@BSL079"
"8@BSL085_600","La Torre_V","43.9610521617141","11.3570765079433","8@BSL085"
"8@BSL087_600","Rabatta Latino","43.9451846103205","11.4120833308455","8@BSL087"
"8@BSL088_600","Borgo Martini_V","43.9482947626071","11.4067239835079","8@BSL088"
"8@BSL089_600","Borgo S.L. Piscine_V","43.950397803427","11.3968874215576","8@BSL089"
"8@BSL090_600","Borgo S.L. Resistenza","43.957956632612","11.3835329660967","8@BSL090"
"8@BSL091_600","Borgo Ospedale_V","43.9573797668361","11.3771003452754","8@BSL091"
"8@BSL092_600","Soterna_V","43.9585386538722","11.3670704313807","8@BSL092"
"8@BSL093_600","Soterna","43.9583578366916","11.3678667805071","8@BSL093"
"8@BSL094_600","Borgo Ospedale","43.9574725108764","11.3762475557156","8@BSL094"
"8@BSL095_600","Borgo S.L. Resistenza_V","43.9578159724178","11.3835382830707","8@BSL095"
"8@BSL096_600","Borgo S.L. Iv Novembre_V","43.9568557518084","11.3891395960325","8@BSL096"
"8@BSL097_600","Borgo S.L. Pecori Giraldi_V","43.9535764041661","11.3929541714897","8@BSL097"
"8@BSL098_600","Borgo S.L. Sp551_V","43.9520974731218","11.3922093674582","8@BSL098"
"8@BSL099_600","Borgo S.L. Piscine","43.9502835375618","11.3971369259507","8@BSL099"
"8@BSL100_600","Borgo San Lorenzo Via Caiani","43.9500408569531","11.3992612664598","8@BSL100"
"8@BSL101_600","Borgo Martini","43.9479509201037","11.4068611344529","8@BSL101"
"8@BSL102_600","Rabatta Latino_V","43.9452181646552","11.4121741575542","8@BSL102"
"8@BSL103_600","Borgo S.L. Faentina","43.9569913242733","11.3911058782952","8@BSL103"
"8@BSL104_600","Bivio San Giovanni_V","43.9757472547892","11.4035089673774","8@BSL104"
"8@BSL105_600","Bivio San Giovanni","43.9757614521895","11.4034290017109","8@BSL105"
"8@BSL106_600","Salto_V","43.9874096131089","11.4111284227995","8@BSL106"
"8@BSL107_600","Salto","43.9869423087631","11.4100768239938","8@BSL107"
"8@BSL108_600","Panicaglia Fs","43.9789428540543","11.4062875100485","8@BSL108"
"8@BSL109_600","Mattagnano_V","43.9436670897687","11.4191630813677","8@BSL109"
"8@BSL110_600","Salto P.L._V","43.9893226596085","11.4141856460721","8@BSL110"
"8@BSL111_600","Salto P.L.","43.9894864163214","11.4142457845254","8@BSL111"
"8@BSL112_600","Poggio","43.9956030505037","11.4210256941652","8@BSL112"
"8@BSL114_600","Ronta","44.0098203043836","11.4366336821054","8@BSL114"
"8@BSL115_600","Ronta","44.0088457981699","11.4358976027816","8@BSL115"
"8@BSL117_600","Via Kennedy 2","43.9540672759143","11.3961738133478","8@BSL117"
"8@BSL118_600","Borgo Sieve 1_R","43.9502104222232","11.3881645083811","8@BSL118"
"8@BSL119_600","Borgo Sieve 1_A","43.9503089159543","11.3880397224546","8@BSL119"
"8@BSL141_600","Polcanto 1","43.8943309198513","11.3563409310564","8@BSL141"
"8@BSL151_600","Grezzano","44.0126696989283","11.4068339047167","8@BSL151"
"8@BSL159_600","L'Alloro","43.9471945242207","11.3483861877445","8@BSL159"
"8@BSL172_600","Panicaglia Fs_V","43.9791469463866","11.4062153387716","8@BSL172"
"8@BSL174_600","Razzuolo","44.0316306851188","11.4683955639502","8@BSL174"
"8@BSL188_600","Le Pergole_V","43.9637440439249","11.3814436906644","8@BSL188"
"8@BSL191_600","Polcanto","43.8972798695328","11.3565413265067","8@BSL191"
"8@BSL192_600","Polcanto 1_V","43.8943433227298","11.3562154236476","8@BSL192"
"8@BSL193_600","Croce Di Collina_V","43.9905147743021","11.3957907093945","8@BSL193"
"8@BSL194_600","Luco Chisciano_V","43.9975171283849","11.3934397047005","8@BSL194"
"8@BSL195_600","Luco Del Mugello_V","44.0011780610281","11.3966466168482","8@BSL195"
"8@BSL196_600","Borgo S.L. Usl_V","43.9593490213253","11.3836366706257","8@BSL196"
"8@BSL197_600","Croce Di Bugana","43.972859790581","11.382259429696","8@BSL197"
"8@BSL198_600","Croce Di Bugana_V","43.9728226322179","11.3821028580602","8@BSL198"
"8@BSL199_600","Bivio Frescobaldi_V","43.9817494129052","11.3885671766531","8@BSL199"
"8@BSL201_600","Pallone","43.9380101998672","11.3961865003793","8@BSL201"
"8@BSL202_600","Poggiolo Casalta","43.9183030346161","11.3532692044364","8@BSL202"
"8@BSL203_600","Poggiolo Casalta_V","43.9181757622649","11.3533724216985","8@BSL203"
"8@BSL204_600","Caroni","43.9034743502544","11.3567754635501","8@BSL204"
"8@BSL205_600","Pilia_V","43.9097913364202","11.3534874349917","8@BSL205"
"8@BSL206_600","Caroni_V","43.9034211628214","11.3566347715267","8@BSL206"
"8@BSL207_600","Pilia","43.9098387618659","11.3536195684606","8@BSL207"
"8@BSL208_600","Stecconaia","43.9668129501199","11.3808874989953","8@BSL208"
"8@BSL209_600","Stecconaia_V","43.9667274456555","11.3807696494504","8@BSL209"
"8@BSL211_600","Via Kennedy 1_V","43.9527272017284","11.3990821531071","8@BSL211"
"8@BSL214_600","Faltona Villette Nuove","43.9416112334534","11.3568835272134","8@BSL214"
"8@BSL215_600","Faltona Villette Nuove_V","43.9416608849793","11.3567941568347","8@BSL215"
"8@BSL216_600","Bivio Per Polcanto","43.9504057282497","11.3933456732449","8@BSL216"
"8@BSL217_600","Bivio Per Polcanto_V","43.9503518438119","11.3934509318332","8@BSL217"
"8@BSL219_600","Cardetole","43.948920548917","11.3440073563784","8@BSL219"
"8@BSL220_600","Senni Bivio Figliano","43.984822787722","11.3773467556831","8@BSL220"
"8@BSL221_600","Senni Bivio Figliano_V","43.9847627054919","11.3774736619273","8@BSL221"
"8@BSL224_600","Rabatta Centro","43.943534782262","11.4143110656093","8@BSL224"
"8@BSL225_600","Rabatta Centro_V","43.9434316161702","11.4144212754879","8@BSL225"
"8@BSL226_600","Sagginale 1_V","43.9326915256057","11.4126680122517","8@BSL226"
"8@BSL227_600","Lutiano_V","43.9412804054093","11.3911196372727","8@BSL227"
"8@BSL237_600","Luco Cimitero","44.0025954573872","11.3987463362176","8@BSL237"
"8@BSL238_600","Luco Cimitero_V","44.0028700820723","11.3987878420834","8@BSL238"
"8@BSL239_600","Luco Quattro Strade_V","43.9990901641993","11.3945467081584","8@BSL239"
"8@BSL240_600","Poggio_V","43.9949255024401","11.4208416790332","8@BSL240"
"8@BSL243_600","Razzuolo 1_V","44.0311116489256","11.46663769718","8@BSL243"
"8@BSL244_600","Razzuolo 1","44.0310337904474","11.4661700027474","8@BSL244"
"8@BSL245_600","Ponteruscello","44.0239715460158","11.4550365570397","8@BSL245"
"8@BSL246_600","Ponteruscello_V","44.0237078467753","11.4546134793679","8@BSL246"
"8@BSL248_600","Il Castellare_V","43.9371671096713","11.3991210668257","8@BSL248"
"8@BSL251_600","Montazzi_V","43.9358767555336","11.4033962446124","8@BSL251"
"8@BSL254_600","Ronta Carabinieri_V","44.0074794805772","11.4344748859689","8@BSL254"
"8@BSL255_600","Ronta Centro Sportivo","43.9968824753218","11.4237638999524","8@BSL255"
"8@BSL256_600","Ronta Campo Sportivo","43.9997528150756","11.4275764832213","8@BSL256"
"8@BSL257_600","Sagginale","43.9336117926421","11.4211955498734","8@BSL257"
"8@BSL258_600","Sagginale_V","43.9334637383257","11.4212569396289","8@BSL258"
"8@BSL260_600","Sagginale Centro_V","43.9330725170171","11.4164251619861","8@BSL260"
"8@BSL261_600","Sagginale 2_V","43.9329976816427","11.4208133154917","8@BSL261"
"8@BSL268_600","Tintoria","43.9618224251692","11.3721848832462","8@BSL268"
"8@BSL282_600","Borgo S.L. Fornaci_V","43.9589012484366","11.3932948089889","8@BSL282"
"8@BSL283_600","Borgo S.L. Fornaci","43.958777180061","11.3926956178702","8@BSL283"
"8@CAL006_600","Settimello 1","43.8453005584848","11.1803380996886","8@CAL006"
"8@CAL007_600","Settimello","43.850346004376","11.1797802372933","8@CAL007"
"8@CAL008_600","Calenzano Via Giusti 1","43.8590430475329","11.1749706362384","8@CAL008"
"8@CAL009_600","Calenzano Via Giusti 2","43.8602702097253","11.1723353061917","8@CAL009"
"8@CAL010_600","Calenzano Via Giusti 3","43.8634163866781","11.1691171334858","8@CAL010"
"8@CAL011_600","Lo Smorto_V","43.9492127873599","11.2109532545838","8@CAL011"
"8@CAL012_600","Madonna Del Facchino","43.8768354412419","11.1753967618056","8@CAL012"
"8@CAL013_600","Madonna Del Facchino_V","43.8768729637749","11.1751331375434","8@CAL013"
"8@CAL014_600","La Chiusa","43.8826107905378","11.1805647442244","8@CAL014"
"8@CAL015_600","La Chiusa_V","43.8826477449799","11.1803079234992","8@CAL015"
"8@CAL016_600","Fosso Di Torri","43.8894316729992","11.1825857256975","8@CAL016"
"8@CAL017_600","Tavernaccia_V","43.8937181828583","11.1842429687412","8@CAL017"
"8@CAL018_600","Tavernaccia","43.8937639896958","11.1844229307476","8@CAL018"
"8@CAL019_600","Carraia_V","43.8975675423605","11.1868085756547","8@CAL019"
"8@CAL020_600","Carraia","43.8973603424963","11.186814996365","8@CAL020"
"8@CAL021_600","Poderuzzo","43.9542214173757","11.2135593154919","8@CAL021"
"8@CAL022_600","Baccheraia","43.9539471951784","11.2132796865201","8@CAL022"
"8@CAL023_600","Carraia Ragnaia_V","43.9055690529576","11.1900523977758","8@CAL023"
"8@CAL024_600","Carraia Ragnaia","43.9055305633782","11.1901721503849","8@CAL024"
"8@CAL025_600","Secciano","43.9127764779332","11.1946684893963","8@CAL025"
"8@CAL026_600","Pratignone_V","43.8486484140201","11.1623589399783","8@CAL026"
"8@CAL027_600","Pratignone","43.8455133129848","11.1593452488981","8@CAL027"
"8@CAL029_600","Porrino_V","43.9236336521715","11.2082575940785","8@CAL029"
"8@CAL030_600","Porrino","43.9235278164284","11.2082367365477","8@CAL030"
"8@CAL031_600","Calenzano Distributore","43.8671186655408","11.1637338539418","8@CAL031"
"8@CAL033_600","Le Croci Di Calenzano","43.9456549053145","11.2136518412567","8@CAL033"
"8@CAL034_600","Le Croci Di Calenzano_V","43.9447047188126","11.2139667136291","8@CAL034"
"8@CAL035_600","La Collinuzza_V","43.939305615078","11.2158386256226","8@CAL035"
"8@CAL036_600","La Collinuzza","43.939428389339","11.21603973979","8@CAL036"
"8@CAL038_600","Settimello 1_V","43.8452949542335","11.1802213316509","8@CAL038"
"8@CAL039_600","Settimello_V","43.849428185509","11.1796534260347","8@CAL039"
"8@CAL040_600","Settimello 4","43.8560780859998","11.179027682783","8@CAL040"
"8@CAL041_600","Calenzano Via Giusti 1_V","43.8591283513919","11.175063017002","8@CAL041"
"8@CAL042_600","Calenzano Via Giusti 2_V","43.8600499442579","11.1730049608463","8@CAL042"
"8@CAL043_600","Lo Smorto","43.9480723481754","11.2105619125464","8@CAL043"
"8@CAL045_600","Zerino","43.8711953790945","11.1689332853852","8@CAL045"
"8@CAL046_600","Calenzano","43.8654079924487","11.1681749183884","8@CAL046"
"8@CAL047_600","Zerino_V","43.8708847250655","11.1684183472769","8@CAL047"
"8@CAL049_600","Fosso Di Torri_V","43.8894693434667","11.1824471716794","8@CAL049"
"8@CAL050_600","Bar Vannino Sesto F.No","43.8427773315822","11.1845054354533","8@CAL050"
"8@CAL051_600","Corzano_V","43.9201289276748","11.2018548965591","8@CAL051"
"8@CAL053_600","Pratignone 1","43.8483781393417","11.1618404430147","8@CAL053"
"8@CAL055_600","Settimello 4_V","43.8552570338748","11.178825347162","8@CAL055"
"8@CAL056_600","Civico 5","43.8472414275559","11.175365319241","8@CAL056"
"8@CAL057_600","Calenzano Capolinea At","43.8648752691693","11.1660653775305","8@CAL057"
"8@CAL065_600","Secciano_V","43.9128251100493","11.1948425426001","8@CAL065"
"8@CAL067_600","Calenzano Testanera_R","43.8490385492871","11.1718713254598","8@CAL067"
"8@CAL068_600","Calenzano Carrefour","43.8528386582376","11.1637726683228","8@CAL068"
"8@CAL069_600","Corzano","43.920081603587","11.2019745935131","8@CAL069"
"8@CAL071_600","Calenzano Casello A1","43.8500308329554","11.169340253145","8@CAL071"
"8@CAL072_600","Calenzano Testanera_A","43.8486971889328","11.1721954573328","8@CAL072"
"8@CAL073_600","Emanuele","43.8471490355918","11.1752101858964","8@CAL073"
"8@CAL079_600","Cavalcante","43.8856795256123","11.1812657387265","8@CAL079"
"8@CAL082_600","Calenzano Testanera","43.8507959168885","11.1679378745315","8@CAL082"
"8@CAL086_600","Calenzano Carrefour_V","43.8519063099207","11.1644861627703","8@CAL086"
"8@CAL089_600","Cavalcante_V","43.8857820845531","11.1812275921424","8@CAL089"
"8@CAL090_600","Manetti E Roberts","43.8438769390321","11.1691726182056","8@CAL090"
"8@CBI001_600","Campi Bisenzio Gkn","43.8449349083671","11.1406426010629","8@CBI001"
"8@CBI002_600","Campi Galileo","43.8423076452892","11.1482556115583","8@CBI002"
"8@CBI003_600","Campi Cervi","43.8488870617816","11.1327307637174","8@CBI003"
"8@CBI009_600","Cervi F.Lli 1","43.8504014140942","11.1292551390061","8@CBI009"
"8@CBI012_600","Cervi F.Lli 2","43.8484544024677","11.1334688955545","8@CBI012"
"8@CBI013_600","Campi I Gigli - Gkn","43.8451109359785","11.1408620718255","8@CBI013"
"8@CBI014_600","Fratelli Cervi 1_V","43.850480316454","11.1293210241934","8@CBI014"
"8@CBI015_600","Conte Of Florence","43.8347088744463","11.1531711846151","8@CBI015"
"8@CER001_600","Certaldo Capolinea","43.5464959989632","11.0387747223992","8@CER001"
"8@CER005_600","Creato_V","43.5483047031857","11.0835065955694","8@CER005"
"8@CER009_600","Calcinaia_V","43.5459138379832","11.0580333591904","8@CER009"
"8@CER011_600","Barbera_V","43.5514603602938","11.0871685597981","8@CER011"
"8@CER013_600","Certaldo Cimitero_V","43.5452403178054","11.0465479806953","8@CER013"
"8@CER015_600","Sciano","43.5474609294296","11.0783700942343","8@CER015"
"8@CER016_600","Creato","43.548315425532","11.0836049433522","8@CER016"
"8@CER017_600","Barbera","43.5513989248705","11.0871997395146","8@CER017"
"8@CER018_600","Casa Rossa","43.5525266342944","11.1056170366932","8@CER018"
"8@CER019_600","Bagnano_V","43.553730844497","11.1187343949303","8@CER019"
"8@CER021_600","Santa Maria A Bagnano","43.5520183654263","11.1235875744828","8@CER021"
"8@CER024_600","Certaldo Via Moro","43.5422641539282","11.0423365424648","8@CER024"
"8@CER029_600","Certaldo Vallaccia","43.5449958559208","11.0505970158657","8@CER029"
"8@CER031_600","Certaldo Calcinaia","43.5459031125055","11.0579789627482","8@CER031"
"8@CER033_600","Marcialla Il Valico","43.5701315920915","11.1461355875169","8@CER033"
"8@CER034_600","Bv. San Lorenzo_V","43.56629977585","11.1513300125812","8@CER034"
"8@CER035_600","Casa Rossa_V","43.5525640751574","11.1055347779834","8@CER035"
"8@CER064_600","Certaldo Lucardese_V","43.5468407002584","11.0539089409597","8@CER064"
"8@CER066_600","Certaldo3_V  Sn","43.5465910864229","11.0537150327111","8@CER066"
"8@CER068_600","Via Fiorentina2  Sn","43.5451065600444","11.0506997952735","8@CER068"
"8@CER074_600","Via Fiorentina3_V Sn","43.5451703185584","11.0464948610984","8@CER074"
"8@CER080_600","Sciano_V","43.5475214841377","11.078362458465","8@CER080"
"8@CER081_600","Poggio Ai Grilli","43.5464562719679","11.0737013854123","8@CER081"
"8@CER082_600","Poggio Ai Grilli_V","43.5465160500336","11.0736571401036","8@CER082"
"8@CER083_600","Il Palazzaccio Sn","43.5522197258081","11.1230284050885","8@CER083"
"8@CER084_600","Salumeria Gelli_V","43.5469900488746","11.0656055545373","8@CER084"
"8@CER085_600","Bagnano","43.5536640632066","11.1187523573266","8@CER085"
"8@CER086_600","Bv. San Lorenzo","43.5662806420012","11.1514615760813","8@CER086"
"8@CER087_600","Salumeria Gelli","43.546936833787","11.0655708097245","8@CER087"
"8@DIC001_600","Sandetole_V","43.868488048217","11.5300707033554","8@DIC001"
"8@DIC002_600","Sandetole","43.8683745759295","11.5299623598452","8@DIC002"
"8@DIC003_600","Dicomano","43.8910917638548","11.5237396717979","8@DIC003"
"8@DIC004_600","Bramasole_V","43.8639086371148","11.5402054207966","8@DIC004"
"8@DIC005_600","Il Rupino_V","43.9084777394866","11.5063500444248","8@DIC005"
"8@DIC006_600","Il Rupino","43.9085613904539","11.5062305815675","8@DIC006"
"8@DIC007_600","Il Rupino Ss551","43.902828798017","11.5075162306357","8@DIC007"
"8@DIC008_600","Il Rupino Ss551_V","43.9029072507221","11.5075720730449","8@DIC008"
"8@DIC009_600","Bramasole","43.8638284200507","11.5404157975475","8@DIC009"
"8@DIC011_600","Borghetto","43.8931142820487","11.535485509654","8@DIC011"
"8@DIC012_600","Borghetto_V","43.8930758581742","11.535606261323","8@DIC012"
"8@DIC013_600","Contea Fs","43.8639020053972","11.530949897986","8@DIC013"
"8@DIC014_600","Contea Fs","43.8637982835417","11.5308769414679","8@DIC014"
"8@DIC015_600","Vicolagna","43.8951173500233","11.5430888290054","8@DIC015"
"8@DIC016_600","Ponterosso Dicomano","43.8979662379745","11.5480615466232","8@DIC016"
"8@DIC017_600","Carbonile Di Dicomano_V","43.9081417262904","11.5565505205352","8@DIC017"
"8@DIC018_600","Carbonile Di Dicomano","43.9083960471102","11.5573858103223","8@DIC018"
"8@DIC021_600","Piandrati","43.8825883751445","11.5287124454332","8@DIC021"
"8@DIC022_600","Piandrati_V","43.8832405665276","11.5284117988086","8@DIC022"
"8@DIC024_600","Dicomano Comune","43.8914668375915","11.5232834311246","8@DIC024"
"8@DIC025_600","Dicomano Fs","43.8933938231379","11.5202532128299","8@DIC025"
"8@DIC026_600","Il Bronio_V","43.8997088848608","11.5149360074729","8@DIC026"
"8@DIC027_600","Riconi","43.916936050794","11.5043293660175","8@DIC027"
"8@DIC028_600","Riconi_V","43.9169428564573","11.5044624212505","8@DIC028"
"8@DIC029_600","Il Bronio","43.8996161846382","11.5148772550063","8@DIC029"
"8@DIC030_600","Contea Bivio Londa","43.8631336141478","11.5318214037478","8@DIC030"
"8@DIC031_600","Dicomano Fs","43.8938617003234","11.5198176564364","8@DIC031"
"8@DIC032_600","Contea Bivio Londa_V","43.8631640192519","11.5314708456669","8@DIC032"
"8@DIC033_600","Dicomano Comune","43.8913662823113","11.5231346011944","8@DIC033"
"8@DIC034_600","Vicolagna_V","43.8951818133645","11.5429190119162","8@DIC034"
"8@DIC035_600","Pian Di Monte_V","43.8648748056446","11.5454651367708","8@DIC035"
"8@DIC036_600","Ponterosso Dicomano_V","43.898494402827","11.5483707082804","8@DIC036"
"8@DIC037_600","Pian Di Monte","43.8647465259661","11.5455330323092","8@DIC037"
"8@DIC038_600","San Biagio","43.8710010103979","11.5299504455349","8@DIC038"
"8@DIC039_600","San Biagio_V","43.87100161704","11.530085627567","8@DIC039"
"8@DIC041_600","Dicomano Stazione Fs","43.8936011878611","11.5195872326827","8@DIC041"
"8@DIC042_600","Casanova Dicomano","43.9140963547347","11.5053178918561","8@DIC042"
"8@DIC043_600","Casanova_V Dicomano","43.9143376073372","11.5053399756529","8@DIC043"
"8@DIC044_600","Forlivese Garibaldi","43.8869351150304","11.5255854699138","8@DIC044"
"8@DIC045_600","Forlivese Shell","43.8879476913862","11.5254480217346","8@DIC045"
"8@DIC046_600","Dicomano Alighieri","43.8914022450581","11.5260831060165","8@DIC046"
"8@DIC047_600","Borghetto S.S. 67","43.8924675733838","11.5299604660918","8@DIC047"
"8@DIC048_600","Vicorati","43.8656510510121","11.553371083","8@DIC048"
"8@DIC049_600","Vicorati_V","43.865731207663","11.5533122731144","8@DIC049"
"8@FI_002_600","Porta Al Prato","43.7776106713345","11.2381638261033","8@FI_002"
"8@FI_004_600","Ferrucci R","43.7629463472257","11.2722489394509","8@FI_004"
"8@FI_005_600","Porta Romana","43.7605834750207","11.2414078461652","8@FI_005"
"8@FI_006_600","Porta Romana_V","43.7609971710664","11.2414820568908","8@FI_006"
"8@FI_007_600","Via Pisana","43.7723311751797","11.2300808491343","8@FI_007"
"8@FI_008_600","Galluzzo","43.7359959989979","11.2248266732688","8@FI_008"
"8@FI_009_600","Firenze Via Gen. Dalla Chiesa_V","43.7650778460781","11.3092454404987","8@FI_009"
"8@FI_010_600","San Marcellino 1","43.7533908207717","11.2976330288163","8@FI_010"
"8@FI_011_600","Teatro Tenda_V","43.7666355130892","11.2978985103622","8@FI_011"
"8@FI_012_600","Ospedale Torregalli","43.7586737902505","11.2023898667962","8@FI_012"
"8@FI_014_600","Sorgane","43.7540015528553","11.3057870156273","8@FI_014"
"8@FI_015_600","Via Barsanti","43.799722918701","11.2291817419922","8@FI_015"
"8@FI_016_600","San Marcellino 1_V","43.7531238066532","11.2976002018244","8@FI_016"
"8@FI_017_600","Amendola","43.7680437656195","11.2713200923022","8@FI_017"
"8@FI_019_600","Xi Agosto Scuola Carabinieri","43.8062553462179","11.2176143958787","8@FI_019"
"8@FI_020_600","Piazza Tasso","43.767011596066","11.2401009647976","8@FI_020"
"8@FI_021_600","Piazza Tasso_V","43.7671206950855","11.240294998911","8@FI_021"
"8@FI_022_600","Via Pisacane_V","43.7935319037551","11.242396045845","8@FI_022"
"8@FI_023_600","T1 Sansovino","43.7744618879117","11.2244405417262","8@FI_023"
"8@FI_024_600","Via Quintino Sella 1","43.7666431977804","11.2785088785526","8@FI_024"
"8@FI_025_600","De Vanni","43.7742755556286","11.2322437015894","8@FI_025"
"8@FI_026_600","Via Carlo Del Prete 1_V","43.7942991859523","11.2337653746085","8@FI_026"
"8@FI_027_600","Nuova Scuola Carabinieri","43.8057988994688","11.2163978248892","8@FI_027"
"8@FI_028_600","Viale Michelangiolo","43.7586359617068","11.2689918645621","8@FI_028"
"8@FI_029_600","Viale Giannotti","43.7604843753432","11.2845013417751","8@FI_029"
"8@FI_030_600","Viale Giannotti_V","43.7617079599474","11.2835903816261","8@FI_030"
"8@FI_031_600","Bandino","43.756559019888","11.2887501148834","8@FI_031"
"8@FI_032_600","Bandino_V","43.7566894657645","11.2887014278258","8@FI_032"
"8@FI_033_600","Via Dell'Olivuzzo","43.7686730301781","11.2201268814255","8@FI_033"
"8@FI_034_600","Olivuzzo_V","43.7687042013681","11.2199850574243","8@FI_034"
"8@FI_035_600","Via Starnina","43.7686255153241","11.2181075870908","8@FI_035"
"8@FI_036_600","Le Due Strade","43.7498660275156","11.235651163076","8@FI_036"
"8@FI_037_600","Le Due Strade_V","43.7496657762889","11.2356242058933","8@FI_037"
"8@FI_038_600","Via Del Filarete","43.7657887735953","11.2138882098786","8@FI_038"
"8@FI_039_600","Rovezzano_V","43.767868420526","11.307354579778","8@FI_039"
"8@FI_040_600","Capolinea Guido Da Siena","43.766209860814","11.2151895351547","8@FI_040"
"8@FI_041_600","Legnaia","43.7658973815396","11.2118003305378","8@FI_041"
"8@FI_042_600","Rovezzano","43.7678308695425","11.3102682960331","8@FI_042"
"8@FI_043_600","Viale Della Giovane Italia","43.7682787987143","11.2694116571177","8@FI_043"
"8@FI_044_600","Bellariva","43.7688408970676","11.2865265956961","8@FI_044"
"8@FI_045_600","Via Lanza","43.7683132730482","11.2814087243867","8@FI_045"
"8@FI_046_600","Beato Angelico Civ.28","43.7678160992595","11.2766159041263","8@FI_046"
"8@FI_047_600","Viale Michelangiolo_V","43.7587990923669","11.2693621481983","8@FI_047"
"8@FI_048_600","Galluzzo Agip","43.7385599041956","11.2244623369621","8@FI_048"
"8@FI_049_600","Galluzzo Agip","43.7382979157053","11.2246280357976","8@FI_049"
"8@FI_050_600","Fratelli Rosselli","43.7792476886099","11.2440931460637","8@FI_050"
"8@FI_051_600","Piazza Dalmazia","43.7945916818757","11.2399786203772","8@FI_051"
"8@FI_052_600","Via Corridoni","43.7906486883046","11.243622043471","8@FI_052"
"8@FI_054_600","Rocca Tedalda","43.7680489580679","11.3112819215177","8@FI_054"
"8@FI_055_600","Il Cionfo_V","43.8038309166421","11.2695425804244","8@FI_055"
"8@FI_056_600","Itc Peano_V","43.7728888508434","11.2931224899003","8@FI_056"
"8@FI_057_600","Peano","43.7730780600771","11.2890709514493","8@FI_057"
"8@FI_058_600","Donatello","43.776333521421","11.2692412279916","8@FI_058"
"8@FI_059_600","Itc Peano","43.7730329394637","11.2930984267505","8@FI_059"
"8@FI_060_600","Il Cionfo","43.8037638366351","11.2697467123508","8@FI_060"
"8@FI_061_600","Poggio Imperiale","43.7596686341462","11.2421737357132","8@FI_061"
"8@FI_062_600","Via Reginaldo Giuliani","43.7993122976061","11.2389954129571","8@FI_062"
"8@FI_064_600","Careggi Piazza","43.8128861167317","11.2507087726414","8@FI_064"
"8@FI_065_600","Manifattura Tabacchi","43.785868331315","11.225392480949","8@FI_065"
"8@FI_068_600","Piazza Mattei","43.8026381959237","11.2304478490291","8@FI_068"
"8@FI_069_600","Perfetti Ricasoli Pignone","43.8063023670434","11.2263060950067","8@FI_069"
"8@FI_070_600","Spartaco Lavagnini","43.7821729770842","11.2543151872441","8@FI_070"
"8@FI_071_600","Spartaco Lavagnini","43.7821871552841","11.2535190148581","8@FI_071"
"8@FI_073_600","Don Minzoni","43.7859908785883","11.2672593208554","8@FI_073"
"8@FI_074_600","Viale Pieraccini","43.8052298591607","11.2486558406237","8@FI_074"
"8@FI_075_600","Viale Pieraccini_V","43.8054687330571","11.2486414960091","8@FI_075"
"8@FI_076_600","Ospedale Villa Monna Tessa","43.8073634214738","11.2502151504176","8@FI_076"
"8@FI_077_600","Ospedale Villa Monna Tessa_V","43.807262421009","11.2499116296225","8@FI_077"
"8@FI_078_600","Viale Pieraccini 1","43.8101741143371","11.2502418512517","8@FI_078"
"8@FI_079_600","Mazzini","43.7760351848365","11.2747865455582","8@FI_079"
"8@FI_080_600","Viale Pieraccini 1_V","43.8096996318547","11.2503698637949","8@FI_080"
"8@FI_081_600","Via Del Romito 1","43.7851827819603","11.2468109669588","8@FI_081"
"8@FI_082_600","Via Del Romito","43.7847675545647","11.2470194877123","8@FI_082"
"8@FI_083_600","Via Del Pollaiolo","43.7722475821291","11.2214044032907","8@FI_083"
"8@FI_084_600","Viale Redi","43.7857582719524","11.2411771896766","8@FI_084"
"8@FI_085_600","Piazza Donatello","43.7773110135","11.2676932455639","8@FI_085"
"8@FI_086_600","Gherardesca","43.7789424270089","11.2667823280039","8@FI_086"
"8@FI_087_600","Viale Gramsci","43.7716596433502","11.2708598651394","8@FI_087"
"8@FI_088_600","Viale Gramsci_V","43.7716578724289","11.2711436918649","8@FI_088"
"8@FI_089_600","Viale Matteotti","43.7819558001146","11.2636799642358","8@FI_089"
"8@FI_090_600","Viale Matteotti_V","43.7830010734629","11.2629785189475","8@FI_090"
"8@FI_091_600","Varlungo","43.7679139419121","11.2980211927531","8@FI_091"
"8@FI_092_600","Varlungo_V","43.7678889450439","11.2992911966622","8@FI_092"
"8@FI_093_600","Sant'Andrea A Rovezzano","43.7692290205075","11.3234882492512","8@FI_093"
"8@FI_094_600","Sant'Andrea A Rovezzano_V","43.7692682815709","11.3234215606885","8@FI_094"
"8@FI_095_600","Via Baracca 4","43.7936228573583","11.2113670851192","8@FI_095"
"8@FI_096_600","Guidoni Crf","43.797774486698","11.2211387043433","8@FI_096"
"8@FI_097_600","Piazza Batoni","43.774494498789","11.2225916113577","8@FI_097"
"8@FI_099_600","Giampaolo Orsini","43.7634095604063","11.272951302294","8@FI_099"
"8@FI_100_600","Giampaolo Orsini_V","43.7635908397836","11.2724379517265","8@FI_100"
"8@FI_101_600","Coluccio Salutati 1","43.762403486066","11.2755483916701","8@FI_101"
"8@FI_102_600","Coluccio Salutati_V","43.7626574918591","11.2772599630126","8@FI_102"
"8@FI_103_600","Via Danimarca","43.7555656811722","11.2978044766818","8@FI_103"
"8@FI_104_600","Via Badia A Ripoli","43.7551171012487","11.2994836855362","8@FI_104"
"8@FI_105_600","Via Badia A Ripoli Pensilina","43.7559281441262","11.2990234757991","8@FI_105"
"8@FI_106_600","Pintuccio_V","43.7642118949672","11.2091029167871","8@FI_106"
"8@FI_107_600","Pintuccio","43.7641637885013","11.2092626479112","8@FI_107"
"8@FI_108_600","Viale Europa","43.7569620845796","11.2982522668706","8@FI_108"
"8@FI_109_600","Viale Europa_V","43.7570702352475","11.2971385134889","8@FI_109"
"8@FI_110_600","Via Aretina","43.7684576391484","11.2922369800057","8@FI_110"
"8@FI_111_600","Via Aretina_V","43.7685327558436","11.2920875303995","8@FI_111"
"8@FI_112_600","Via Mariti","43.7907674505193","11.2341169372109","8@FI_112"
"8@FI_113_600","Careggi Viale Morgagni","43.803120278489","11.245507268174","8@FI_113"
"8@FI_114_600","Via Reginaldo Giuliani_V","43.7992456109763","11.2391041745946","8@FI_114"
"8@FI_115_600","Stazione Rifredi_V","43.80140553649","11.2377719763822","8@FI_115"
"8@FI_116_600","Via Reginaldo Giuliani 2_V","43.8046213106439","11.2340134045131","8@FI_116"
"8@FI_117_600","Viale Sestese 1_V","43.8143017127095","11.2279337972851","8@FI_117"
"8@FI_118_600","Autolinee Toscane","43.7421347174676","11.2878619670297","8@FI_118"
"8@FI_119_600","Viale Sestese 2_V","43.8165867808099","11.2248575459058","8@FI_119"
"8@FI_120_600","Scandicci Don Gnocchi","43.7607728083598","11.2056180024229","8@FI_120"
"8@FI_121_600","Cimitero Del Pino","43.7557202292927","11.3050956439105","8@FI_121"
"8@FI_123_600","Ponte A Ema","43.7408638040387","11.2916654823236","8@FI_123"
"8@FI_124_600","Ponte A Ema Shell","43.7427870797456","11.2883131600163","8@FI_124"
"8@FI_125_600","Via Barsanti_V","43.7998055696733","11.2288864811756","8@FI_125"
"8@FI_126_600","Piazza Mattei_V","43.8025693414712","11.2301100785622","8@FI_126"
"8@FI_127_600","Ferrucci A","43.7629842170989","11.2719971931805","8@FI_127"
"8@FI_130_600","Il Sodo_V","43.8106171381836","11.2319880081949","8@FI_130"
"8@FI_131_600","Le Romite_V","43.7413880528535","11.2247652346494","8@FI_131"
"8@FI_132_600","Le Romite","43.7410307341091","11.2244584246715","8@FI_132"
"8@FI_133_600","San Bartolo A Cintoia","43.7740314605581","11.198425523481","8@FI_133"
"8@FI_134_600","Via Carlo Del Prete 3","43.7970929634792","11.2273422190212","8@FI_134"
"8@FI_135_600","San Bartolo A Cintoia","43.7739919530425","11.1982093664955","8@FI_135"
"8@FI_138_600","Giorgini","43.7924603364934","11.251531061438","8@FI_138"
"8@FI_140_600","Viale Strozzi","43.7831840567783","11.2524160756967","8@FI_140"
"8@FI_141_600","Giovanni Dei Marignolli","43.791630753315","11.2369300860584","8@FI_141"
"8@FI_142_600","Coluccio Salutati 2","43.7624081728766","11.282144051088","8@FI_142"
"8@FI_145_600","Montelungo","43.7807814184041","11.2464988099807","8@FI_145"
"8@FI_146_600","Montelungo","43.7811203727493","11.2462895662196","8@FI_146"
"8@FI_147_600","Montelungo","43.7814855454588","11.2460335831869","8@FI_147"
"8@FI_148_600","Strozzi Fallaci","43.7832120718819","11.252420831354","8@FI_148"
"8@FI_149_600","Via Quintino Sella 2","43.7670029183117","11.2833367662138","8@FI_149"
"8@FI_152_600","Galluzzo Via Volterrana","43.7361079734761","11.2232686708694","8@FI_152"
"8@FI_153_600","Via Senese_V","43.7581391326147","11.2409569379626","8@FI_153"
"8@FI_156_600","Cavallotti","43.7730231066115","11.2351892371784","8@FI_156"
"8@FI_157_600","P.Za Vittorio Veneto","43.7771569701087","11.2387090936105","8@FI_157"
"8@FI_160_600","Via Senese","43.7573221195549","11.2405042139017","8@FI_160"
"8@FI_161_600","Firenze Montelungo","43.7807460242394","11.246613797704","8@FI_161"
"8@FI_162_600","Stazione Campo Di Marte","43.7775818986298","11.2760745161606","8@FI_162"
"8@FI_163_600","La Lastra_V","43.8065353256813","11.274771589013","8@FI_163"
"8@FI_164_600","La Lastra","43.8065065183445","11.2744426880114","8@FI_164"
"8@FI_165_600","Bolognese Poggiolino","43.8018610892519","11.2676547179352","8@FI_165"
"8@FI_166_600","Bolognese Poggiolino_V","43.8018093465811","11.2677213791608","8@FI_166"
"8@FI_167_600","Bolognese Trieste","43.7923332283318","11.2612525964722","8@FI_167"
"8@FI_168_600","Bolognese Trieste_V","43.7925107578517","11.2613931798966","8@FI_168"
"8@FI_169_600","Ponte Rosso_R","43.7868719450397","11.2623686287475","8@FI_169"
"8@FI_170_600","Ponte Rosso_A","43.7873126544801","11.2625869162751","8@FI_170"
"8@FI_171_600","Ponte Rosso","43.7850002507136","11.2620488937041","8@FI_171"
"8@FI_172_600","Santo Stefano In Pane","43.798715829198","11.2417860049118","8@FI_172"
"8@FI_173_600","Lavagnini Liberta'_V","43.7837601609833","11.2603634474088","8@FI_173"
"8@FI_174_600","Lavagnini Liberta'","43.78347469602","11.2600799830057","8@FI_174"
"8@FI_175_600","Via Arnolfo","43.7669509122177","11.2750949503551","8@FI_175"
"8@FI_176_600","Via Minghetti","43.7684670883356","11.2879571109961","8@FI_176"
"8@FI_177_600","Via Pascoli","43.7863562152581","11.2654089619384","8@FI_177"
"8@FI_178_600","Viale Galileo","43.7580335699625","11.261282406649","8@FI_178"
"8@FI_179_600","Viale Galileo_V","43.7578168293025","11.2603237774885","8@FI_179"
"8@FI_180_600","Centro Traumatologico Ortopedico","43.8024309801367","11.247447203742","8@FI_180"
"8@FI_181_600","Bolognese La Pietra","43.7984098660648","11.2626611302982","8@FI_181"
"8@FI_182_600","Bolognese La Pietra_V","43.7983778147693","11.2629156120088","8@FI_182"
"8@FI_183_600","Celso","43.7947985475929","11.2454926597642","8@FI_183"
"8@FI_184_600","Le Panche","43.8053955099824","11.2410786655716","8@FI_184"
"8@FI_186_600","Via Baracca 1_V","43.7897402642339","11.2235437865778","8@FI_186"
"8@FI_187_600","Via Baracca 2","43.7909855464053","11.2201639755905","8@FI_187"
"8@FI_188_600","Via Baracca 2_V","43.7916743151067","11.2183053804137","8@FI_188"
"8@FI_189_600","Via Baracca 3","43.7928719865254","11.213931991563","8@FI_189"
"8@FI_190_600","Via Baracca 3_V","43.793037010003","11.213672349513","8@FI_190"
"8@FI_191_600","Lorenzo Il Magnifico 1","43.7829013274548","11.2537574366091","8@FI_191"
"8@FI_192_600","Viale Luigi Gori","43.7969156586301","11.2055616810972","8@FI_192"
"8@FI_193_600","Via Firenzuola","43.7869729601685","11.2700030199801","8@FI_193"
"8@FI_194_600","Via Borghini","43.787303648924","11.2689339297995","8@FI_194"
"8@FI_195_600","Ponte Alla Badia_V","43.8044195794486","11.2788668049091","8@FI_195"
"8@FI_196_600","Ponte Alla Badia","43.8043091834075","11.2789893458152","8@FI_196"
"8@FI_197_600","Via Reginaldo Giuliani 2","43.8046459933176","11.2341324253636","8@FI_197"
"8@FI_198_600","Viale Sestese 1","43.8144915567467","11.2278942323842","8@FI_198"
"8@FI_199_600","Viale Sestese 2","43.8160983349961","11.2257084154166","8@FI_199"
"8@FI_200_600","Stazione Rifredi","43.8020555084995","11.2373438811693","8@FI_200"
"8@FI_201_600","Don Minzoni_V","43.7861769907329","11.2673912581039","8@FI_201"
"8@FI_202_600","Ponte Alle Riffe","43.7892091728038","11.2711344150534","8@FI_202"
"8@FI_203_600","Faentina 1","43.7972564738139","11.273827041515","8@FI_203"
"8@FI_204_600","Leopolda Gabbuggiani","43.7781403742842","11.2386912018035","8@FI_204"
"8@FI_205_600","Leopolda Porta Al Prato","43.7780950996014","11.2385664931402","8@FI_205"
"8@FI_206_600","Pian Di San Bartolo","43.8320246240686","11.2874750739443","8@FI_206"
"8@FI_207_600","Bolognese 6_V","43.8162114194624","11.2801283043976","8@FI_207"
"8@FI_208_600","Bolognese 5_V","43.8100298300325","11.2811930969131","8@FI_208"
"8@FI_209_600","Bolognese 5","43.8088171475869","11.2789021092096","8@FI_209"
"8@FI_211_600","Via Delle Porte Nuove","43.7819407157644","11.2375068120828","8@FI_211"
"8@FI_216_600","Firenze Via Gen. Dalla Chiesa","43.7650249781216","11.3089835084128","8@FI_216"
"8@FI_217_600","Via Ponte Alle Mosse 1","43.7794336138745","11.2382144621282","8@FI_217"
"8@FI_218_600","Via Ponte Alle Mosse 2","43.7824128227515","11.2347765028845","8@FI_218"
"8@FI_219_600","Via Ponte Alle Mosse","43.7854574971834","11.2291701535","8@FI_219"
"8@FI_220_600","Piazza Puccini","43.7860786163088","11.2282533950316","8@FI_220"
"8@FI_221_600","Via Baracca 4_V","43.794097605745","11.2103392203719","8@FI_221"
"8@FI_222_600","Teatro Tenda","43.7664320572755","11.2980435705758","8@FI_222"
"8@FI_223_600","Trespiano Cimitero_V","43.8283457381348","11.28746620333","8@FI_223"
"8@FI_224_600","Trespiano Cimitero","43.8278171914502","11.2871762618378","8@FI_224"
"8@FI_225_600","Bolognese 6","43.81640760096","11.2800427663714","8@FI_225"
"8@FI_228_600","Via Trento","43.7889639676636","11.260538390907","8@FI_228"
"8@FI_231_600","Via Piagentina","43.7678632489208","11.2785275710983","8@FI_231"
"8@FI_232_600","Via Forlanini Centro Universitario","43.7934195909547","11.2322707845739","8@FI_232"
"8@FI_233_600","Via Mariti","43.7930306973043","11.236217620726","8@FI_233"
"8@FI_234_600","Via Mariti_V","43.7931032065355","11.2364505774703","8@FI_234"
"8@FI_235_600","Nuovo Pignone","43.8060221294894","11.225708716529","8@FI_235"
"8@FI_236_600","Fabroni","43.7899844355361","11.2526700530255","8@FI_236"
"8@FI_239_600","Vincenzo Cuoco","43.7938058544986","11.2729243967723","8@FI_239"
"8@FI_240_600","Il Sodo","43.8104432879209","11.2328630193808","8@FI_240"
"8@FI_241_600","Via Carlo Del Prete 1","43.7942544844385","11.2342096163339","8@FI_241"
"8@FI_242_600","Faentina Scuole","43.7940885591783","11.2720963790507","8@FI_242"
"8@FI_243_600","Carlo Del Prete 2_V","43.7962499606309","11.2301022727629","8@FI_243"
