stop_id,stop_name,stop_lat,stop_lon,stop_code
"2@1521_600","Pratese Magrini","43.7987900793627","11.1957288266728","2@1521"
"2@1522_600","Pratese Palagio Degli Spini","43.7994569238106","11.1938054826112","2@1522"
"2@1523_600","Pratese Ponte A Giogoli","43.8035436859721","11.1862022956809","2@1523"
"2@1524_600","Lucchese Righi","43.8051742821808","11.1812622058204","2@1524"
"2@1525_600","Casa Rossa 01","43.806347104516","11.1791374542297","2@1525"
"2@C5047_600","Lucchese Nobel","43.8046435072842","11.1818203755772","2@C5047"
"2@C6000_600","Pratese Sede At","43.8013693081708","11.1901293641587","2@C6000"
"2@C6202_600","Viale Europa  Hotel Napoleon","43.8351807502914","10.4945751217229","2@C6202"
"2@C6203_600","Viale Europa 736","43.8330599534967","10.4942656532642","2@C6203"
"2@C6206_600","Viale Europa Fr.736","43.8328153507317","10.4943808165854","2@C6206"
"2@C6207_600","Viale Europa Fr. Hotel Napoleon","43.8350034080551","10.4947106240492","2@C6207"
"2@C6408_600","Pratese S.Piero A Quaracchi","43.802632008642","11.1876644043334","2@C6408"
"2@C6409_600","Pratese Primo Settembre","43.7986565740786","11.1958973810032","2@C6409"
"2@CAL502_600","Centro Direzionale - A1 Fi Nord","43.831938084513","11.1596499060208","2@CAL502"
"2@D1506_600","Pratese Ferrarin","43.799321766333","11.1936096725216","2@D1506"
"5@0707_600","Bonellina  (La Vergine)","43.9228068844416","10.9183993927242","5@0707"
"5@3348_600","P. Dante (Stazione - 3)","43.9271165228747","10.9141013565786","5@3348"
"5@MCT000_600","Montecatini Stazione","43.8796270843048","10.7812422212115","5@MCT000"
"6@B_0362_600","Costituzione 11 Fr.","43.9304060688394","10.9137544076522","6@B_0362"
"6@B_0365_600","P. Garibaldi","43.930934820031","10.9165853930249","6@B_0365"
"6@B_0705_600","Bonellina, 18 Fr.","43.9255218222584","10.9188483499044","6@B_0705"
"6@B_0707_600","Bonellina   (Cimitero La Vergine)","43.9228112045881","10.9183482641761","6@B_0707"
"6@B_3083_600","Carratica, 51","43.9294803208238","10.9184898019601","6@B_3083"
"6@B_3349_600","P.Za Dante (Arrivo) <Pt0000>","43.9273075130736","10.9141066017907","6@B_3349"
"6@CAL500_600","Centro Direzionale - A1 Fi Nord","43.8318417913875","11.1598781522818","6@CAL500"
"6@DFI300_600","Ticino","43.8106468316487","11.1773748860522","6@DFI300"
"6@MCT000_600","Montecatini Stazione","43.879621915485","10.7811579643724","6@MCT000"
"7@FM8826_600","T2 Guidoni","43.7997373786759","11.2095743828785","7@FM8826"
"7@FM8849_600","Geminiani Poste","43.7982438404236","11.2074019776269","7@FM8849"
"8@0011_600","Viale Cavour 76","43.3302416783465","11.3189192243735","8@0011"
"8@0013_600","P.Diavoli","43.3323501706003","11.3130476321374","8@0013"
"8@0048_600","P.Diavoli","43.332154483924","11.3136853037934","8@0048"
"8@0050_600","V.Le C.B.Di Cavour.N.83","43.3299637040328","11.3193018577316","8@0050"
"8@0063_600","Siena-V.Le V.Emanuele Ii","43.3288765396191","11.3219682715798","8@0063"
"8@0064_600","Siena-Antiporto Camollia V.Vitto","43.3287111004503","11.3220364632482","8@0064"
"8@0065_600","P.Camollia","43.3279954596601","11.3242959975672","8@0065"
"8@0067_600","Siena-Bv .Montluc.","43.3257579751824","11.3252510832393","8@0067"
"8@0095_600","Siena-V Le V.Veneto N.5","43.3206922140708","11.3226545859983","8@0095"
"8@0096_600","Siena-P.Za San Domenico","43.320276330142","11.326338159034","8@0096"
"8@0260_600","Fontebecci","43.3423378709014","11.305879001451","8@0260"
"8@0262_600","T.Fiorentina","43.3368728023372","11.3075125146532","8@0262"
"8@0275_600","V.N.Sauro","43.3253069402241","11.3247828436224","8@0275"
"8@0380_600","Torre Fiorentina","43.3371165571656","11.3074651744377","8@0380"
"8@0382_600","Fontebecci","43.3425497117788","11.3060319800865","8@0382"
"8@2000A_600","Siena-Via Tozzi","43.322841844254","11.3276836808907","8@2000A"
"8@2000_600","Siena-Via Tozzi","43.3228438476229","11.3276958435147","8@2000"
"8@2369_600","Siena-V.Le R.Franci","43.3237849806479","11.3248936143373","8@2369"
"8@4063_600","Colle V.Elsa (V.Bilenchi)","43.422569070629","11.1278010060167","8@4063"
"8@4085_600","Ospedale Val D'Elsa","43.4525018366226","11.1502910743349","8@4085"
"8@4086_600","Ospedale Val D'Elsa","43.4526751436005","11.1501499021092","8@4086"
"8@4088_600","Str.Prov.Ang.V.Dellabadia","43.4236446007573","11.1308605615661","8@4088"
"8@4089_600","Str.Prov.Per Siena Calp","43.4198617686946","11.1374664008968","8@4089"
"8@4113_600","Str.Prov. Opposto Calp","43.4200440722634","11.1371741313019","8@4113"
"8@4114_600","Str.Prov.Op.V.Della Badia","43.4237253382683","11.1307715809088","8@4114"
"8@4223_600","Belvedere","43.414822659968","11.1565321302798","8@4223"
"8@4236_600","Belvedere","43.4148923080417","11.1566059947565","8@4236"
"8@4312_600","Colle V.Elsa Distr.Api","43.4263923006341","11.1262069153811","8@4312"
"8@4313_600","Colle V.Elsa  Distr.Esso","43.4317166085889","11.1362674684864","8@4313"
"8@4314_600","Colle V.Elsa 100 Mt. Sup.","43.433542816751","11.141886198329","8@4314"
"8@4315_600","Maltraverso (Verso Pogg:)","43.4379967282485","11.1470406009077","8@4315"
"8@4316_600","Colle Opp.Conc.Fiat","43.446152398178","11.1495817591454","8@4316"
"8@4319_600","Campostaggia","43.4483882585975","11.1483464130246","8@4319"
"8@4322_600","Colle V.Elsa  Distr.Esso","43.4317937058834","11.1362903200609","8@4322"
"8@4323_600","Colle V.Elsa  Distr.Api","43.426330611347","11.1260332834992","8@4323"
"8@4334_600","Loc. Vallebuona  Dir. Colle Val D'Elsa","43.4314782543881","11.1318025386857","8@4334"
"8@4335_600","Loc. Vallebuona Direzione Poggibonsi","43.4288274828808","11.1266198910551","8@4335"
"8@4560_600","Colle V.Elsa (V.Bilenchi)","43.422456087162","11.1277468938159","8@4560"
"8@5436_600","V.Trento Davanti M.P.S.","43.4669785747935","11.1479134060389","8@5436"
"8@5512_600","V.Senese N.Civ.90-","43.4640720652611","11.15400606412","8@5512"
"8@5514_600","Romituzzo Esseeffe-","43.4616547260085","11.1582514042862","8@5514"
"8@5546_600","Calcinaia Opp.Scuola Ronc","43.4563956455205","11.1558550328449","8@5546"
"8@5549_600","Romituzzo","43.4620376734099","11.1580416570367","8@5549"
"8@5551_600","V.Senese N.Civ.139-","43.4641578154293","11.1540091100931","8@5551"
"8@5777_600","Firenze Bottai","43.7268046823992","11.2245962537637","8@5777"
"8@5783_600","Firenze P.Prato Lato P.V.","43.7776045524104","11.2395671171522","8@5783"
"8@5786_600","Bottai Ingr.A1","43.7244451942558","11.2251933361617","8@5786"
"8@5787_600","Bottai Ingr.A1","43.7238248465942","11.22511946209","8@5787"
"8@5792_600","Firenze Bottai","43.7267354825573","11.2244787241024","8@5792"
"8@5931_600","Cappuccini (Pian Del Casone)","43.4166158270826","11.1471995925215","8@5931"
"8@5932_600","Cappuccini (Pian Del Casone)","43.4166198669522","11.1474207105777","8@5932"
"8@6001_600","Poggibonsi Salceto Rotond","43.4674993616418","11.1545036949784","8@6001"
"8@6029_600","Poggibonsi Rotatoria Salceto","43.4676206660341","11.1543708425403","8@6029"
"8@FI_001_600","Autostazione Firenze","43.7758626098267","11.2465182218479","8@FI_001"
"8@FI_002_600","Porta Al Prato","43.7776106713345","11.2381638261033","8@FI_002"
"8@FI_005_600","Porta Romana","43.7605834750207","11.2414078461652","8@FI_005"
"8@FI_006_600","Porta Romana_V","43.7609971710664","11.2414820568908","8@FI_006"
"8@FI_008_600","Galluzzo","43.7359959989979","11.2248266732688","8@FI_008"
"8@FI_020_600","Piazza Tasso","43.767011596066","11.2401009647976","8@FI_020"
"8@FI_021_600","Piazza Tasso_V","43.7671206950855","11.240294998911","8@FI_021"
"8@FI_025_600","De Vanni","43.7742755556286","11.2322437015894","8@FI_025"
"8@FI_036_600","Le Due Strade","43.7498660275156","11.235651163076","8@FI_036"
"8@FI_037_600","Le Due Strade_V","43.7496657762889","11.2356242058933","8@FI_037"
"8@FI_048_600","Galluzzo Agip","43.7385599041956","11.2244623369621","8@FI_048"
"8@FI_049_600","Galluzzo Agip","43.7382979157053","11.2246280357976","8@FI_049"
"8@FI_152_600","Galluzzo Via Volterrana","43.7361079734761","11.2232686708694","8@FI_152"
"8@FI_153_600","Via Senese_V","43.7581391326147","11.2409569379626","8@FI_153"
"8@FI_156_600","Cavallotti","43.7730231066115","11.2351892371784","8@FI_156"
"8@FI_160_600","Via Senese","43.7573221195549","11.2405042139017","8@FI_160"
"8@MTR003_600","Colonna Di Monteriggioni","43.3935464753155","11.2184871399132","8@MTR003"
"8@PGB001_600","Poggibonsi Fs","43.4679239003402","11.1487772896602","8@PGB001"
"8@PGB004_600","Poggibonsi-Esso","43.4683345303771","11.153499561275","8@PGB004"
"8@PGB017_600","Poggibonsi Scuole Roncalli","43.456577726863","11.1552570992571","8@PGB017"
"8@PGB451_600","Bivio S.Lucchese","43.453020738792","11.1519618338945","8@PGB451"
"8@USC01_600","Uscita Acquacalda","43.3386850162918","11.2933595655582","8@USC01"
"9@A0005_600","Arezzo Terminal","43.4623506439799","11.8752121276048","9@A0005"
"9@A0009_600","Via Baldaccio D'Anghiari","43.4652882076539","11.8713587225823","9@A0009"
"9@A000C_600","Viale Cittadini","43.4621779938335","11.8727729411443","9@A000C"
"9@A000G_600","Via Veneto 66/A","43.4584943872845","11.8747820448919","9@A000G"
"9@A000M_600","Via Veneto 126 - Saione","43.4565104247391","11.8724014451202","9@A000M"
"9@A000U_600","Via Veneto 220 Opp Pallanca","43.4532791574119","11.8684170980361","9@A000U"
"9@A0011_600","Via Romana 60 Opp Chiesa San Marco","43.4510538482489","11.8656022348813","9@A0011"
"9@A001M_600","La Mossa","43.4422373793141","11.8545740849199","9@A001M"
"9@A001Q_600","Olmo Palazzini","43.4373269855493","11.8514150501551","9@A001Q"
"9@A0088_600","Olmo Palazzini","43.4373412760726","11.8515639906102","9@A0088"
"9@A008D_600","La Mossa","43.4427380708334","11.8553785903262","9@A008D"
"9@A008V_600","Via Romana 68 - Chiesa San Marco","43.4508134251861","11.8654703793188","9@A008V"
"9@A0090_600","Via Veneto 211 - Pallanca","43.453004092841","11.8682557798857","9@A0090"
"9@A009D_600","Via Veneto - Distributore Agip","43.4554495796454","11.8712635615324","9@A009D"
"9@A01X1_600","Via Xxv Aprile 44","43.4578663005791","11.8811299793144","9@A01X1"
"9@A0Z05_600","Ripa Dell'Olmo","43.4314071348634","11.8418339269972","9@A0Z05"
"9@A0Z0I_600","Ripa Olmo - San Zeno","43.4269971312149","11.8335087556718","9@A0Z0I"
"9@A0Z68_600","Ripa Olmo - San Zeno","43.4272762817645","11.8343543114315","9@A0Z68"
"9@A0Z6N_600","Ripa Dell'Olmo","43.4317297563013","11.8422567363465","9@A0Z6N"
"9@BC009_600","Ambra Ristorante","43.4180743539591","11.6086490186101","9@BC009"
"9@BC010_600","Ambra Di Fr. Ristorante","43.4179539422385","11.6086897950217","9@BC010"
"9@BC031_600","Bv. Capannole","43.4426987255304","11.6230905556106","9@BC031"
"9@BC032_600","Bv. Capannole","43.4428016314537","11.6234419270052","9@BC032"
"9@BC069_600","Ambra Scuola Elementare","43.4120653015167","11.6000591524088","9@BC069"
"9@BC070_600","Ambra Di Fr. Scuola Elementare","43.4117666145264","11.5999569089388","9@BC070"
"9@BC222_600","Badia Agnano Sp 18 Di Fronte Al Nc.1","43.4360002234676","11.6526507559499","9@BC222"
"9@BC228_600","Bv. Pietraviva Al Km.14,850","43.3919325908855","11.5800257288741","9@BC228"
"9@BC233_600","Bv. Pietraviva Al Km.14,8","43.391990894283","11.5807576540802","9@BC233"
"9@BC239_600","Badia Agnano Sp 18 Nc.134 (Distributore)","43.4357799262581","11.6535577643234","9@BC239"
"9@BD014_600","Colonna Del Grillo","43.3309487294274","11.5529999865247","9@BD014"
"9@BD015_600","Colonna Del Grillo","43.3309267645704","11.5531504738052","9@BD015"
"9@BD143_600","Colonna Del Grillo","43.3301459182121","11.5538771429966","9@BD143"
"9@BD741_600","Casetta","43.3036441230024","11.427243834942","9@BD741"
"9@BEL17_600","Il Cipressino","43.4954334940606","11.1524412108892","9@BEL17"
"9@BV819_600","Barberino Val D'Elsa Giardini","43.545814547124","11.1751044262809","9@BV819"
"9@BV820_600","Barberino Val D'Elsa","43.5431780121535","11.1728153908828","9@BV820"
"9@BV821_600","Bivio Novoli","43.5402179427408","11.1706295602026","9@BV821"
"9@BV822_600","La Portaccia","43.5299586291766","11.1689353285994","9@BV822"
"9@BV823_600","San Filippo","43.5257334749253","11.1718941135651","9@BV823"
"9@BV824_600","Bivio Cinciano","43.5114935438152","11.1621527422037","9@BV824"
"9@BV825_600","San Martino","43.5011663135743","11.1545840544566","9@BV825"
"9@BV826_600","Cipressino","43.490846694362","11.1508447692796","9@BV826"
"9@BV915_600","Bivio Sant'Appiano","43.4883856941921","11.1504695104539","9@BV915"
"9@EV063_600","Colle V.Elsa (V.Bilenchi)","43.422569070629","11.1278010060167","9@EV063"
"9@EV088_600","Ponte Di Spugna","43.4236446007573","11.1308605615661","9@EV088"
"9@EV089_600","Cristalleria Artistica","43.4198617686946","11.1374664008968","9@EV089"
"9@EV098_600","Bivio Scarna","43.4099010726582","11.1629938523814","9@EV098"
"9@EV099_600","Belvedere","43.4087106331467","11.1647357149594","9@EV099"
"9@EV108_600","Belvedere","43.408745707549","11.1647711748994","9@EV108"
"9@EV109_600","Bivio Scarna","43.4102087903136","11.1626533105019","9@EV109"
"9@EV113_600","Cristalleria Artistica","43.4200440722634","11.1371741313019","9@EV113"
"9@EV114_600","Ponte Di Spugna","43.4237352037245","11.1308721930852","9@EV114"
"9@EV223_600","Belvedere Hotel","43.414822659968","11.1565321302798","9@EV223"
"9@EV224_600","Podere La Segolina","43.4052607539569","11.168777576804","9@EV224"
"9@EV235_600","Podere La Segolina","43.4055823027288","11.1685062469333","9@EV235"
"9@EV236_600","Belvedere Hotel","43.4148923080417","11.1566059947565","9@EV236"
"9@EV312_600","Via Gramsci - Distributore","43.4263923006341","11.1262069153811","9@EV312"
"9@EV314_600","Ponte Dell'Armi","43.433542816751","11.141886198329","9@EV314"
"9@EV323_600","Via Gramsci","43.4261361546656","11.1260384047268","9@EV323"
"9@EV560_600","Colle V.Elsa (V.Bilenchi)","43.422456087162","11.1277468938159","9@EV560"
"9@EV931_600","Cappuccini","43.4166158270826","11.1471995925215","9@EV931"
"9@EV932_600","Cappuccini","43.4166198669522","11.1474207105777","9@EV932"
"9@F0002_600","Stazione Leopolda","43.7777265748945","11.2384886192965","9@F0002"
"9@F0025_600","Via De' Vanni","43.7742819103407","11.2322266302843","9@F0025"
"9@F0131_600","Le Romite","43.7415857096654","11.2248839519992","9@F0131"
"9@F0132_600","Le Romite","43.741472136216","11.2246350545592","9@F0132"
"9@F0155_600","Orti Oricellari","43.7764613712221","11.2458249241272","9@F0155"
"9@F1267_600","Firenze Nova","43.8016594526644","11.2312350358416","9@F1267"
"9@F2570_600","Guidoni Valdera","43.7972959515198","11.2212776513396","9@F2570"
"9@F2571_600","Via Magellano","43.8004217770312","11.2327541104372","9@F2571"
"9@F3958_600","Via Magellano Ang. Panciatichi","43.8001754584833","11.2331724252494","9@F3958"
"9@F3959_600","Via Eugenio Barsanti","43.7972476577716","11.2257293197753","9@F3959"
"9@F3961_600","Aeroporto Di Peretola","43.8010305760889","11.20248375054","9@F3961"
"9@F3962_600","Firenze Via Barsanti","43.7970997523641","11.2259869717529","9@F3962"
"9@F3986_600","Firenze Piazza Tasso","43.7670481009531","11.2400254242509","9@F3986"
"9@F5640_600","Firenze Via Senese N.52/R","43.7579232794667","11.2407523629582","9@F5640"
"9@F5643_600","Galluzzo","43.7360731963506","11.2231264457825","9@F5643"
"9@F5644_600","Galluzzo","43.7359759513106","11.2247779622309","9@F5644"
"9@F5659_600","Firenze Via Senese N.25/A","43.7581221482666","11.2409415216097","9@F5659"
"9@F5778_600","Firenze Galluzzo","43.7385359337122","11.2246529957478","9@F5778"
"9@F5779_600","Due Strade","43.749519940451","11.2355264929026","9@F5779"
"9@F5780_600","Firenze Porta Romana","43.7613986768118","11.2414250027596","9@F5780"
"9@F5781_600","Piazza Tasso","43.7671566269886","11.2402900044605","9@F5781"
"9@F5782_600","Via Cavallotti","43.7728421897448","11.2350898670451","9@F5782"
"9@F5783_600","Leopolda","43.7772008161596","11.2386522515749","9@F5783"
"9@F5785_600","Firenze Autostazione","43.7759965231791","11.2464288180302","9@F5785"
"9@F5789_600","Firenze Porta Romana","43.7609007391885","11.2413078932021","9@F5789"
"9@F5790_600","Firenze Due Strade","43.7495840005174","11.2352987317417","9@F5790"
"9@F5791_600","Firenze Galluzzo","43.7383965784724","11.2244670290156","9@F5791"
"9@F785D_600","Firenze","43.7759792325093","11.246360489804","9@F785D"
"9@FI126_600","Piazza Enrico Mattei","43.8025760784018","11.2300171116863","9@FI126"
"9@FK018_600","Uscita Firenze Nord","43.831681211773","11.1592377668355","9@FK018"
"9@FK019_600","Firenze Nord Casello A1","43.8315906915596","11.1608442569605","9@FK019"
"9@G0013_600","Grosseto F.S.","42.7684510571034","11.1072475245321","9@G0013"
"9@G0052_600","Senese","42.7676444767762","11.1184697725778","9@G0052"
"9@G0053_600","Senese","42.7665578068925","11.1176644676555","9@G0053"
"9@G0057_600","Senese","42.7772188132505","11.1232297256452","9@G0057"
"9@G0143_600","Grosseto Cimabue Pizzetti","42.7564214720751","11.1004717394336","9@G0143"
"9@G0144_600","Grosseto Cimabue Pizzetti","42.7558766354923","11.100272601796","9@G0144"
"9@G0730_600","Oberdan","42.7645922011378","11.1143428140737","9@G0730"
"9@G1025_600","Grosseto Senese Zona Industriale","42.7839676420115","11.1267644156918","9@G1025"
"9@G1026_600","Grosseto Senese Zona Industriale","42.784097946491","11.1271664418246","9@G1026"
"9@G3900_600","Via Tripoli (Edicola)","42.7640518963353","11.114702069777","9@G3900"
"9@GM032_600","Campiglia Stazione","43.0171076665535","10.5872615316463","9@GM032"
"9@IM490_600","Uscita Firenze Impruneta","43.7207916351938","11.2239448594066","9@IM490"
"9@IM491_600","Uscita Firenze Impruneta","43.7208765306122","11.2236585001591","9@IM491"
"9@IM777_600","Firenze Bottai","43.7268046823992","11.2245962537637","9@IM777"
"9@IM792_600","Firenze Bottai","43.7267354825573","11.2244787241024","9@IM792"
"9@LG028_600","Frantoio Cinque Colli","43.2968565490891","11.7431595071907","9@LG028"
"9@LG030_600","Bivio Per Tozzo","43.287270716511","11.7478926926367","9@LG030"
"9@LG031_600","S.P.19 Di Fronte Nc. 55","43.2833750672783","11.7487017003866","9@LG031"
"9@LG036_600","S.P.19 Lucignano Nc. 55","43.2839757895131","11.748432975236","9@LG036"
"9@LG037_600","Bivio Per Tozzo","43.2875635074976","11.7478859153844","9@LG037"
"9@LG039_600","Frantoio Cinque Colli","43.2976771912715","11.7432935652162","9@LG039"
"9@LG190_600","Lucignano Paese","43.2729785012143","11.7442832854312","9@LG190"
"9@LG207_600","Lucignano Paese","43.273037463304","11.744061836003","9@LG207"
"9@LG933_600","Bivio Santa Maria","43.270819531396","11.7330986846889","9@LG933"
"9@LG940_600","Bivio Santa Maria","43.2708600141505","11.7338481091658","9@LG940"
"9@MT003_600","Colonna Di Monteriggioni","43.3936018297542","11.2184450707009","9@MT003"
"9@MT100_600","Sant'Antonio","43.4009934438542","11.1747981525641","9@MT100"
"9@MT101_600","Belvedere - Ingresso 4","43.39905414765","11.1766436083767","9@MT101"
"9@MT103_600","Pian Del Casone","43.3942404455644","11.1853458373148","9@MT103"
"9@MT104_600","Casone","43.3945344743528","11.1846947515126","9@MT104"
"9@MT106_600","Belvedere - Ingresso 4","43.3991077956612","11.1767863004204","9@MT106"
"9@MT107_600","Sant'Antonio","43.4008720188067","11.1750232456132","9@MT107"
"9@MT226_600","Casone Ingresso 17","43.3931245985954","11.1932232015897","9@MT226"
"9@MT227_600","Bivio Strove","43.3930377362734","11.1993835995315","9@MT227"
"9@MT229_600","Pian Del Casone - Superauto","43.3927997885325","11.2115112402653","9@MT229"
"9@MT230_600","Pian Del Casone - Superauto","43.3928391716143","11.2115931755663","9@MT230"
"9@MT231_600","Bivio Strove","43.3930918193339","11.1987440022219","9@MT231"
"9@MT233_600","Pian Del Casone Ingresso 17","43.3932556922978","11.1929606405733","9@MT233"
"9@MT929_600","Il Piccolo Castello","43.392963482264","11.2074771951968","9@MT929"
"9@MT930_600","Strada Della Cerreta","43.3961981893512","11.1804810073263","9@MT930"
"9@MT933_600","Strada Della Cerreta","43.3963024025969","11.1800893610467","9@MT933"
"9@MT934_600","Il Piccolo Castello","43.3928593102519","11.2076285861661","9@MT934"
"9@MX651_600","Bivio Montioni","43.1841717514484","11.2767313153247","9@MX651"
"9@MX913_600","Loc.Casetta Murlo Ss.223 (Mx220)","43.1695861706308","11.2836536119527","9@MX913"
"9@MX914_600","Loc.Casetta Murlo Ss.223 (Mx219)","43.1696379899864","11.2834439515917","9@MX914"
"9@NE006_600","Zona Industriale","43.3384757784241","11.7349493606483","9@NE006"
"9@NE011_600","Monte San Savino - Stazione","43.3318007528445","11.7307504622119","9@NE011"
"9@NE012_600","Monte San Savino - Stazione","43.3316471223662","11.7309813364985","9@NE012"
"9@NE019_600","Ceneraia","43.312166288519","11.744156757561","9@NE019"
"9@NE022_600","Ceneraia","43.3126254583254","11.7443454964913","9@NE022"
"9@NE033_600","Zona Industriale","43.3388177034621","11.7358991528409","9@NE033"
"9@PL028_600","Porto Biglietterie Sud","42.9280843401829","10.5450287461677","9@PL028"
"9@PL168_600","Circolo Acciaierie Nord","42.9291522507425","10.5268969248052","9@PL168"
"9@PL169_600","Circolo Acciaierie Sud","42.9290729780045","10.526811392757","9@PL169"
"9@PL175_600","Via Cavallotti Nord","42.9281732182991","10.5301213978981","9@PL175"
"9@PL176_600","Via Cavallotti Sud","42.9281030187539","10.5300242013519","9@PL176"
"9@PL417_600","Piombino Porto Stazione","42.9295377257098","10.544174303504","9@PL417"
"9@PN085_600","Paganico Piazzale","42.9300047753878","11.2670620337774","9@PN085"
"9@PN091_600","Civitella Marittima Svincolo","42.9960747380389","11.2875212818174","9@PN091"
"9@PN092_600","Civitella Marittima Svincolo","42.9970754886565","11.2889219336954","9@PN092"
"9@PN104_600","Paganico Via Della Stazione","42.9331437140038","11.2739135908687","9@PN104"
"9@PN108_600","Paganico Porta Gorella","42.9324917275197","11.2697243724764","9@PN108"
"9@PN336_600","Civitella Marittima Le Croci","42.9970984653782","11.2852417321056","9@PN336"
"9@PN337_600","Civitella Marittima Le Croci","42.9972588119541","11.2854592888742","9@PN337"
"9@PN338_600","Civitella Marittima Centro","42.9941872955316","11.2817188691971","9@PN338"
"9@PN339_600","Civitella Marittima Cimitero","42.9970612494745","11.2833035886731","9@PN339"
"9@PN530_600","Casale Di Pari Svincolo","43.0524890818296","11.2862810703729","9@PN530"
"9@PN980_600","Paganico (Hotel Pace)","42.9292269107371","11.26593705873","9@PN980"
"9@PR015_600","Salceto","43.4677056837738","11.154111782708","9@PR015"
"9@PR029_600","Poggibonsi - Salceto","43.4677633162213","11.154183059182","9@PR029"
"9@PR033_600","Poggibonsi - Salceto","43.4682131473909","11.1535574328364","9@PR033"
"9@PR085_600","Ospedale Val D'Elsa","43.452558143517","11.1503925761804","9@PR085"
"9@PR086_600","Ospedale Val D'Elsa","43.4525008609429","11.1501829111745","9@PR086"
"9@PR313_600","Castiglioni Basso","43.4317166085889","11.1362674684864","9@PR313"
"9@PR315_600","Maltraverso","43.4379967282485","11.1470406009077","9@PR315"
"9@PR316_600","Campostaggia","43.446152398178","11.1495817591454","9@PR316"
"9@PR319_600","Campostaggia","43.4483882585975","11.1483464130246","9@PR319"
"9@PR322_600","Castiglioni Basso","43.4317937058834","11.1362903200609","9@PR322"
"9@PR462_600","Via Marconi 183","43.4748422298608","11.1468027129306","9@PR462"
"9@PR466_600","Via Montegrappa","43.4704405382459","11.1500519425233","9@PR466"
"9@PR467_600","Via Montegrappa 30","43.4682398070775","11.1521898614586","9@PR467"
"9@PR500_600","Poggibonsi Fs [1]","43.4676187625183","11.1488710198948","9@PR500"
"9@PR512_600","Via Senese - Semaforo","43.4640720652611","11.15400606412","9@PR512"
"9@PR514_600","Romituzzo","43.4616794196465","11.1582820080933","9@PR514"
"9@PR516_600","Roncalli","43.4564566112866","11.1553246073074","9@PR516"
"9@PR546_600","Calcinaia Opp Roncalli","43.4563956455205","11.1558550328449","9@PR546"
"9@PR549_600","Romituzzo","43.4620376734099","11.1580416570367","9@PR549"
"9@PR551_600","Via Senese - Semaforo","43.4641578154293","11.1540091100931","9@PR551"
"9@PR849_600","Colombaio Opposto Edicola","43.46568036671","11.1558915180191","9@PR849"
"9@PR850_600","Colombaio","43.4668469816806","11.1531463284767","9@PR850"
"9@RT138_600","Rapolano-I Piani (Stadio)","43.292644905211","11.6038796073164","9@RT138"
"9@RT139_600","Rapolano-S.Sebastiano","43.2843599153129","11.6049170801255","9@RT139"
"9@RT143_600","Bv. Sentino Dir. Serre","43.265006952327","11.6285844885979","9@RT143"
"9@RT144_600","Bv. Sentino Dir. Rapolano","43.2651821125096","11.6286457495021","9@RT144"
"9@RT147_600","Rapolano-S.Sebastiano","43.2839510952386","11.6051795195029","9@RT147"
"9@RT148_600","Rapolano-I Piani (Opp. Stadio)","43.2928168868764","11.6039663323826","9@RT148"
"9@RT795_600","Serre Parcheggio","43.2595383618998","11.6199671837624","9@RT795"
"9@RT800_600","Rapolano - P.Za Della Repubblica","43.287361004332","11.604573361376","9@RT800"
"9@RT811_600","Rapolano-P.Zza Della Repubblica","43.2871424158389","11.6044155564313","9@RT811"
"9@RT817_600","Bv. Armaiolo","43.2997088098573","11.5978367968654","9@RT817"
"9@S0011_600","Viale Cavour","43.3302416783465","11.3189192243735","9@S0011"
"9@S0013_600","Palazzo Diavoli","43.3323501706003","11.3130476321374","9@S0013"
"9@S0048_600","Palazzo Diavoli","43.332154483924","11.3136853037934","9@S0048"
"9@S0050_600","Cavour","43.3299637040328","11.3193018577316","9@S0050"
"9@S0063_600","Antiporto Camollìa","43.3288765396191","11.3219682715798","9@S0063"
"9@S0064_600","Antiporto Camollìa","43.3287111004503","11.3220364632482","9@S0064"
"9@S0065_600","Porta Camollìa","43.3281107261306","11.3241803355852","9@S0065"
"9@S0066_600","Montluc","43.3270650275885","11.3246877386034","9@S0066"
"9@S0067_600","Montluc","43.3257579751824","11.3252510832393","9@S0067"
"9@S0070_600","Aretina Due Ponti","43.3159880819123","11.3548559837611","9@S0070"
"9@S0073_600","Porta Pispini","43.3171139106722","11.3436956620967","9@S0073"
"9@S0076_600","Porta Ovile","43.3236351339671","11.3339751567054","9@S0076"
"9@S0094_600","Fortezza Medicea","43.322847424831","11.3218037598339","9@S0094"
"9@S0095_600","Veneto","43.3206922140708","11.3226545859983","9@S0095"
"9@S0096_600","San Domenico","43.320276330142","11.326338159034","9@S0096"
"9@S0102_600","Porta Pispini","43.3170799104701","11.3432397757395","9@S0102"
"9@S0105_600","Aretina Due Ponti","43.315914265372","11.3550168919146","9@S0105"
"9@S0120_600","Biagio Di Montluc","43.325799011848","11.3254956163632","9@S0120"
"9@S0121_600","Montluc 18","43.3269722342759","11.3247876768851","9@S0121"
"9@S0123_600","Le Lupe","43.3250983928026","11.3314816858775","9@S0123"
"9@S0135_600","Le Lupe","43.3253785397703","11.33108281786","9@S0135"
"9@S0222_600","Colonna San Marco","43.3099429572838","11.316544044032","9@S0222"
"9@S0245_600","Colonna San Marco","43.3102039453817","11.3171058609485","9@S0245"
"9@S0260_600","Fontebecci","43.3423378709014","11.305879001451","9@S0260"
"9@S0262_600","Torre Fiorentina","43.3368925586163","11.3075532759901","9@S0262"
"9@S0275_600","Nazario Sauro","43.3253069402241","11.3247828436224","9@S0275"
"9@S0299_600","Policlinico Le Scotte","43.3428854207623","11.3266892290087","9@S0299"
"9@S0373_600","Nazario Sauro","43.325220126927","11.3249783430728","9@S0373"
"9@S0380_600","Torre Fiorentina","43.3371165571656","11.3074651744377","9@S0380"
"9@S0382_600","Fontebecci","43.3425497117788","11.3060319800865","9@S0382"
"9@S0384_600","Porta Ovile","43.3236100291679","11.3333039017323","9@S0384"
"9@S0730_600","Bivio Europa","43.3089676289397","11.3613806760785","9@S0730"
"9@S0769_600","Bivio Europa","43.3070772718394","11.3631169427337","9@S0769"
"9@S0980_600","Presciano Muratori","43.2970869741782","11.4026686051481","9@S0980"
"9@S0981_600","Casone","43.314114403971","11.3583643859838","9@S0981"
"9@S0982_600","Casone","43.3131028569606","11.3588546088456","9@S0982"
"9@S0983_600","Via Fiorentina","43.3350458371733","11.3088058665032","9@S0983"
"9@S0984_600","Via Fiorentina","43.3341144380669","11.3098134431901","9@S0984"
"9@S2000_600","Siena-Via Tozzi","43.3228438476229","11.3276958435147","9@S2000"
"9@S2369_600","Rinaldo Franci","43.3237849806479","11.3248936143373","9@S2369"
"9@S2531_600","Box 1 Terminal Pescaia","43.3239950924833","11.3193015907841","9@S2531"
"9@S2532_600","Box 2 Terminal Pescaia","43.3239422936963","11.3198877745474","9@S2532"
"9@S3987_600","Risalita San Francesco","43.3234541624797","11.3358129760217","9@S3987"
"9@S3988_600","Risalita San Francesco","43.3232391271914","11.3360914713348","9@S3988"
"9@S5002_600","Due Ponti","43.315911489762","11.3563357440984","9@S5002"
"9@ST189_600","Rigomagno Stazione","43.2569588341501","11.7067604309522","9@ST189"
"9@ST208_600","Rigomagno","43.2571031684255","11.7065588800603","9@ST208"
"9@SV099_600","Montioni","43.1837589424497","11.2766299572291","9@SV099"
"9@TR286_600","Tavarnelle","43.5641885271574","11.1747501265966","9@TR286"
"9@TR810_600","Ponte Nuovo","43.5927693613129","11.1968710082145","9@TR810"
"9@TR812_600","Romita","43.5812211793033","11.1878815708526","9@TR812"
"9@TR813_600","Capaccia","43.5732169252697","11.1835122709252","9@TR813"
"9@TR814_600","Voltaccia","43.5698223008648","11.1810142358678","9@TR814"
"9@TR815_600","Bivio San Donato","43.5656554885373","11.1790291370842","9@TR815"
"9@TR816_600","Tavarnelle","43.5617823155872","11.1714470571267","9@TR816"
"9@TR817_600","S.S.Cassia Km.265","43.5563208715928","11.1719447653445","9@TR817"
"9@TR818_600","S.S.Cassia Km. 264.4","43.5534809048956","11.1734641094896","9@TR818"
"9@TR939_600","Tavarnelle","43.5589253129229","11.1690245874451","9@TR939"
"9@TR993_600","Tavarnelle Via Mocale","43.5569202099131","11.1704922750118","9@TR993"
"9@USC01_600","Uscita Acquacalda","43.3387648469269","11.2934556929821","9@USC01"
"9@VD001_600","Pieve Al Toppo Banca Toscana","43.4106140171626","11.7993559481502","9@VD001"
"9@VD006_600","Tegoleto","43.3928647792662","11.7862501952298","9@VD006"
"9@VD007_600","Tegoleto","43.3927536855442","11.7862994694326","9@VD007"
"9@VD015_600","Spoiano","43.3705238052425","11.765121176599","9@VD015"
"9@VD018_600","Ss.73 Spoiano Al Km.128,300","43.3649678243156","11.758067089935","9@VD018"
"9@VD019_600","Ss.73 Spoiano Al Km.128,350","43.3646807943914","11.7582083389499","9@VD019"
"9@VD020_600","Ss.73 Spoiano Centro Al Km.129,350","43.3706528833397","11.7655543323196","9@VD020"
"9@VD030_600","Pieve Al Toppo Banca Toscana","43.4106324929793","11.7996455503527","9@VD030"
"9@VD031_600","Via Della Piscina (Circolo Arci)","43.4081385797636","11.7952266836191","9@VD031"
"9@VD033_600","S.C. Dei Boschi Nc.111","43.4063608231248","11.7900118217281","9@VD033"
"9@VD034_600","S.C.Dei Boschi Al Nc. 120","43.4062533032085","11.7896583820278","9@VD034"
"9@VD054_600","Via Della Piscina (Simply)","43.4082030209532","11.795536913069","9@VD054"
"9@VD129_600","S.Comunale Dei Boschi Cimitero","43.4080475379136","11.7688247766968","9@VD129"
"9@VD130_600","S.C.Dei Boschi Cimitero","43.4079642633374","11.768731444604","9@VD130"
"9@VD221_600","Bv. Per Civitella Sp 21","43.4221550442629","11.7293990192364","9@VD221"
"9@VD240_600","Bv. Per Civitella Sp 21","43.4219643488476","11.7287126549068","9@VD240"
"9@VH256_600","La Fornace","43.6099130337937","11.1929708399552","9@VH256"
"9@VH454_600","Bargino Svincolo Supestrada","43.6265881803826","11.1839738425801","9@VH454"
"9@VH458_600","Bargino Podere Paladina","43.620385942101","11.1872750678401","9@VH458"
"9@VH807_600","Bargino","43.6163063997402","11.190022684053","9@VH807"
"9@VH808_600","S.S.Cassia Km. 272.9","43.603723698374","11.1952209474788","9@VH808"
"9@VH809_600","L'Olmo","43.6005356911311","11.1974815295415","9@VH809"
"9@VH811_600","S.S.Cassia","43.594781639279","11.2018609125858","9@VH811"
"9@ZC068_600","Calenzano","43.8528388884566","11.1635717401933","9@ZC068"
"9@ZC111_600","Via Einstein Campi Bisenzio","43.8406672893462","11.1499663864293","9@ZC111"
"FI2922_600","Aeroporto 2","43.8010349112505","11.202284895765","FI2922"
"FI4002_600","Firenze T2 Guidoni P2","43.7999640220958","11.2086855720502","FI4002"
"FI4003_600","Firenze T2 Guidoni P3","43.7999200049758","11.2089085719126","FI4003"
"GR0058_600","Senese Ospedale","42.7774640586042","11.1240720230109","GR0058"
"LU0061_600","Palatucci","43.8476810752277","10.495580341192","LU0061"
"LU0078_600","Arrivo Palatucci","43.8476198480524","10.4951432693562","LU0078"
"LU0454_600","Carducci 1","43.8382475858261","10.499986394833","LU0454"
"LU0455_600","Carducci 4","43.8380523638968","10.5002831441631","LU0455"
"LU0458_600","Stazione Fs","43.8375913605805","10.5053913613585","LU0458"
"LU0490_600","Viale Papi","43.843848455684","10.4940542894378","LU0490"
"LU5099_600","Verdi 4","43.8423412069419","10.4967893495787","LU5099"
"PO0116_600","Martini 1","43.878365230582","11.1030570191485","PO0116"
"PO0117_600","Martini 2","43.8780882718101","11.1027790415313","PO0117"
"PO0722_600","Galcianese 14","43.880715312342","11.0885701512822","PO0722"
"PO1409_600","Porta Leone 1","43.8802138854759","11.0892018846127","PO1409"
"PO1439_600","Ippodromo","43.8700471020464","11.0840148055013","PO1439"
"PO1442_600","Centro Pecci 1","43.8612105601377","11.1079228919117","PO1442"
"PO1443_600","Delle Fonti 6","43.8582675911266","11.1036741066323","PO1443"
"PO1444_600","Questura - Centro Pecci","43.8603112952567","11.1065090253394","PO1444"
"PO1445_600","Centro Pecci 2","43.8616172472643","11.1086512711779","PO1445"
"PO1446_600","Repubblica 2","43.8636945134968","11.1102810248178","PO1446"
"PO1447_600","Di Gello 3","43.8729388350199","11.0763949264571","PO1447"
"PO2015_600","Ceppo Vecchio","43.8783504620376","11.0982249395652","PO2015"
"PO2016_600","Plesso Scolastico Via Dossetti","43.8820607226724","11.0821718267897","PO2016"
"PO2048_600","Pomeria 1","43.8768357859834","11.1012685062107","PO2048"
"PO2179_600","Prato Stazione Fs 5","43.8787453976913","11.1083301624294","PO2179"
"PO2358_600","Colombo 2","43.8814963640039","11.0866878494927","PO2358"
"PO2403_600","Monnet 1","43.8790432127607","11.0874416339234","PO2403"
"PO2414_600","Roncioni 3","43.8735820422724","11.0897942638191","PO2414"
"PO2418_600","Roncioni 1","43.8750884675058","11.0857512117454","PO2418"
"PO2420_600","Fiordaliso 1","43.8710358694353","11.0819650254981","PO2420"
"PO2428_600","Monnet 3","43.8762181381206","11.0851241172836","PO2428"
"PO2429_600","Pomeria 3","43.8760705317609","11.0987934924297","PO2429"
"PO2430_600","Di Gello 1","43.8716798638403","11.0803501055147","PO2430"
"PO2434_600","Reggiana 1","43.8739937908372","11.0733169085361","PO2434"
"PO2435_600","Galcianese 5","43.8782545162539","11.0786087020444","PO2435"
"PO2466_600","Plesso Scolastico Via Reggiana","43.8759240417633","11.0683382276646","PO2466"
"PO2467_600","Reggiana 3","43.8749043112438","11.0708580042647","PO2467"
"PO2468_600","Plesso Scolastico Via Reggiana","43.8748798723107","11.070726097984","PO2468"
"PO2470_600","Reggiana 10","43.8738976367935","11.0733052476313","PO2470"
"PO2591_600","Dossetti 2","43.8805500394188","11.0793349391567","PO2591"
"PO2611_600","Di San Giusto 8","43.8765853196993","11.0797297247505","PO2611"
"PO2636_600","Reggiana 6","43.8758975784003","11.0682085734451","PO2636"
"PO2700_600","Roma 1","43.8758896358801","11.0929255816007","PO2700"
"PO2701_600","Roma 3","43.8739296243737","11.0911788470564","PO2701"
"PO2703_600","Zarini 1","43.8724526819001","11.0928713339528","PO2703"
"PO2704_600","Soccorso","43.8712235116382","11.088873732272","PO2704"
"PO2705_600","Marx","43.8701138477995","11.0917271248703","PO2705"
"PO2727_600","Ferraris 1","43.8616473555981","11.0930763736911","PO2727"
"PO2728_600","Ferraris 6","43.8616948534009","11.0931866683383","PO2728"
"PO2734_600","Fiorentina 3","43.8638977750364","11.0928642024682","PO2734"
"PO2736_600","Fiorentina 1","43.8649789852651","11.0938768022957","PO2736"
"PO2737_600","Pomeria 5","43.8756644554606","11.0947727177173","PO2737"
"PO2740_600","Arcangeli 4","43.8746547179503","11.0952148942456","PO2740"
"PO2742_600","Arcangeli 2","43.8734099751665","11.0942783894394","PO2742"
"PO2745_600","Zarini 3","43.8715354820201","11.0954509331095","PO2745"
"PO2751_600","Ferraris 3","43.860489684649","11.0973475842787","PO2751"
"PO2752_600","Ferraris 4","43.8606046001466","11.0972183464105","PO2752"
"PO2753_600","Ferraris 5","43.8593441210007","11.1018369537865","PO2753"
"PO2764_600","Ferraris 2","43.8593355846702","11.1021891450028","PO2764"
"PO2770_600","Zarini 11","43.8670865217083","11.1074131302109","PO2770"
"PO2771_600","Zarini 9","43.868278801538","11.1041772882553","PO2771"
"PO2772_600","Zarini 4","43.8685491146898","11.1036330003128","PO2772"
"PO2773_600","Zarini 5","43.8703828125565","11.0986318880594","PO2773"
"PO2774_600","Zarini 7","43.8691330622373","11.1018827339631","PO2774"
"PO2788_600","Della Francesca","43.8630049880298","11.1075995845152","PO2788"
"PO2823_600","Fiorentina 4","43.8649873166735","11.094194375317","PO2823"
"PO2826_600","Boni","43.8697853101467","11.1022131870739","PO2826"
"PO2827_600","Meoni","43.8714527523914","11.1009401448354","PO2827"
"PO2840_600","Fiorentina 2","43.8637111205303","11.0928796955302","PO2840"
"PO2852_600","Panziera","43.8686160444232","11.0906400448706","PO2852"
"PO2857_600","Simintendi","43.8755418071991","11.1018954974306","PO2857"
"PO2877_600","Zarini 2","43.8674148759265","11.1068811175616","PO2877"
"PO2880_600","Ferrucci 11","43.866193854915","11.1115025337005","PO2880"
"PO2925_600","Berlinguer - Centro Pecci","43.8596184919934","11.1066403277455","PO2925"
"PO2927_600","Da Vinci 4","43.8670582004501","11.0945464618895","PO2927"
"PO5006_600","Valentini 8","43.8731507957471","11.100523890726","PO5006"
"SFN402_600","Centro Direzionale - A1 Fi Nord","43.8318324985962","11.1597982181768","SFN402"
"SFN404_600","Centro Direzionale - A1 Fi Nord","43.8318257036686","11.1599671204846","SFN404"
